courier_id,wave_index,tracking_id,weather_grade,pick_lng,pick_lat,deliver_lng,deliver_lat,create_time,confirm_time,assigned_time,promise_deliver_time,estimate_pick_time,aoi_id,shop_id
100002543,0,2100076281373656834,正常天气,121.645264,39.134928,121.666394,39.126341,1583292500,1583292506,1583292530,1583295740,1583293766,4b2316770f4804be7f983e27dc9094d0,3baf730ca426d510f9ec70ce78629a3b
100002543,0,2100076284083603274,正常天气,121.647214,39.135549,121.647164,39.136111,1583292658,1583292658,1583292710,1583294998,1583293558,3bb894c0f955ef015cfc5cd4ea90d8f7,02615f185581167cc68ba41af3d25ce6
100002543,0,2100076286982522434,正常天气,121.645091,39.135123,121.673534,39.125911,1583293222,1583293243,1583293251,1583296522,1583294323,c855af65b92dd9b8d8486b80536e9f6e,b5ecc16987a51df7942fbec602d0a5a6
100002652,0,2100076275324027968,正常天气,121.566356,39.149935,121.566134,39.140601,1583290776,1583290777,1583290810,1583293836,1583292037,1d7cd2a2873ee4d24b17a9e1dfd127ec,adfe4aafa9da1cc27b7762cc082be000
100002652,0,2100076278831744714,正常天气,121.568298,39.147999,121.569024,39.145571,1583291594,1583291594,1583291652,1583293814,1583292494,213e69a8ee6116cbf19a24b4b9d28924,1f9d289682ab2ae53cdcb09e3ad227b0
100002652,0,2100076281733350407,正常天气,121.568558,39.144311,121.568794,39.142591,1583292053,1583292065,1583292073,1583293853,1583292785,ff4d783af0e12d3debcd2cb71b5e341b,2070c74b85e6e8edfdf846b13c938912
100002652,0,2100076284897166847,正常天气,121.562976,39.141273,121.574184,39.139631,1583293408,1583293413,1583293515,1583296048,1583294433,009a537fa42323cb549efd556d67dffa,5bcd9378d9e65a98bd1396b39f6851d2
100002652,0,2100076287749818354,正常天气,121.564363,39.141847,121.573314,39.144591,1583293966,1583293971,1583293994,1583296966,1583294811,7ac71d433f282034e088473244df8c02,d36d890cbf40a087efe947b4a79abe3d
100002652,0,2100076289130071880,正常天气,121.57178,39.146409,121.573734,39.147241,1583294247,1583294248,1583294475,1583296647,1583295868,930b2494b681fce7b957b71f1bdbe5e9,396f0df9cf457a30044dc211b386c924
100002652,0,2100076289792771986,正常天气,121.572693,39.146557,121.566914,39.147791,1583294673,1583294673,1583294712,1583297073,1583295393,65cbc44f981a6cc9576e730a67af7cd4,7ff74903d95a4c3e26631ba3a2a75ea7
100002652,4,2100076334120109843,正常天气,121.568226,39.149518,121.584584,39.150781,1583319139,1583319151,1583319190,1583321899,1583320171,3fcab83bb138524a1798630f6e50e22c,3b66e197c1b060c88bb1fe13cee1f3b8
100002652,4,2100076337207084640,正常天气,121.571753,39.150777,121.583434,39.153021,1583319771,1583319772,1583319789,1583321691,1583320492,53dfaf3260e46bce77cfed1e599755d4,8d7f077ad513a8f3c335d94547d1ea43
100002652,4,2100076336957752781,正常天气,121.571768,39.151065,121.575524,39.150151,1583319964,1583319970,1583320029,1583321764,1583320690,35936504a37d53e03abdfbc7318d9ec7,2a66a8451c453f4ba0a7578f2eb7271b
100023698,0,2100076274074912325,正常天气,121.374269,39.135742,121.343264,39.145061,1583290628,1583290630,1583290666,1583293868,1583291590,90c70a60382b076cc9fee71a11a07fd8,840f626ac9a52ccd4f2a74036ee5d23e
100023698,0,2100076274470520389,正常天气,121.374269,39.135742,121.364694,39.134311,1583290674,1583290675,1583290726,1583292774,1583291455,a7b9b2b21d1285660be0ed245e960d3e,840f626ac9a52ccd4f2a74036ee5d23e
100023698,0,2100076275326617373,正常天气,121.374426,39.135681,121.364644,39.133711,1583290781,1583290783,1583290847,1583292761,1583291443,a7b9b2b21d1285660be0ed245e960d3e,d9af7c7a77253760c3f3a5a4984558e7
100023698,0,2100076276306576965,正常天气,121.374269,39.135742,121.354574,39.138051,1583290975,1583290976,1583291026,1583293615,1583291816,426e4075d62c3d2af9c3a436639f1532,840f626ac9a52ccd4f2a74036ee5d23e
100023698,2,2100076298236298661,正常天气,121.373504,39.135871,121.386794,39.136091,1583297537,1583297543,1583297565,1583299337,1583298263,4b04a686b0ad13dce35fa99fa4161c65,f6f667fc164958c4f22e25e2ed011339
100023698,2,2100076297848325541,正常天气,121.373504,39.135871,121.373784,39.135951,1583297631,1583297634,1583297685,1583299431,1583298354,e0455fdf1fc9f5d99f2628b11f820444,f6f667fc164958c4f22e25e2ed011339
100023698,2,2100076298330867292,正常天气,121.377837,39.134734,121.391634,39.127601,1583297776,1583297801,1583297805,1583299876,1583298461,a5ad99dcc79b412786bd339db35db7ad,f8cc3b7db29c694aeebe1f9db6395d42
100069773,2,2100076322546124449,正常天气,121.556844,39.178741,121.536204,39.180161,1583313560,1583314146,1583314195,1583322560,1583315360,7c082c66ddaf58dcc533a0aa5b73a72a,4f0c5ad2934f0b4c88a8cec1d22d0e2c
100069773,2,2100076324315203486,正常天气,121.551971,39.179954,121.536384,39.181941,1583314095,1583314100,1583314134,1583316975,1583315540,7c082c66ddaf58dcc533a0aa5b73a72a,7bc8a0b3c55d3ba0b2a44baf3ac55354
100069773,2,2100076322625258711,正常天气,121.552844,39.179708,121.557404,39.178171,1583314505,1583314510,1583314555,1583316485,1583315230,cc30e3a636a1a88a26fdf947b4611385,a54e1d219afba64ff473ded06a1396b2
100069773,4,2100076335633270433,正常天气,121.556844,39.178741,121.547834,39.180371,1583318735,1583319321,1583319355,1583327735,1583320355,bd7db7397f7d83052f829816ecc7f004,4f0c5ad2934f0b4c88a8cec1d22d0e2c
100069773,4,2100076335688681460,正常天气,121.5553,39.176961,121.549044,39.181741,1583319590,1583319591,1583319595,1583321630,1583320491,0e29d28aa2a2482dea08904fe3a79458,df5e62c3549e7b648f0ca98bb6a56113
100069773,4,2100076340048823689,正常天气,121.555749,39.176771,121.548844,39.182221,1583320855,1583320858,1583320914,1583322655,1583321578,bd7db7397f7d83052f829816ecc7f004,8c45dd720f0c558ffcb2fc014c2ac25c
10007871,0,2100076262710150234,正常天气,121.636701,39.141801,121.630714,39.134901,1583260395,1583260395,1583295676,1583298000,1583261895,513f87e81c55df41d13882de16356197,1af41a72adbdb2abd7a2dab03e357bcf
10007871,0,2100076276643464234,正常天气,121.632424,39.141421,121.625334,39.146611,1583291251,1583291264,1583291296,1583293951,1583293064,0d109cc0999fa3a108c67cb748b1931f,83fdc5279f63b8760555908227c44509
10007871,0,2100076280880465082,正常天气,121.62993,39.144603,121.627984,39.146531,1583292080,1583292081,1583292196,1583293880,1583292801,f3ce7eb378ad3c10089e73af381e9d2f,34887bf8e1a0de848d271bc6b7059670
10007871,0,2100076282503431354,正常天气,121.62993,39.144603,121.629604,39.150711,1583292384,1583292384,1583292436,1583294400,1583293884,bf49288eb197bc6b44fa0573acf8c74d,34887bf8e1a0de848d271bc6b7059670
10007871,0,2100076285652010043,正常天气,121.630727,39.143733,121.637884,39.131921,1583293043,1583293045,1583293098,1583295263,1583293765,0600bfe432c5290d2a5e53cc84c2f1b2,ba113afe127ed1bfc9f41e46d846ca1d
10007871,0,2100076287250794440,正常天气,121.633075,39.142016,121.649994,39.148921,1583294043,1583294045,1583294236,1583296923,1583295125,cf69b6cd864c333512184d4946a26de2,3782522ffcd8ceeb70eba77f4b404250
10007871,0,2100076291554542992,正常天气,121.631774,39.142171,121.651824,39.148361,1583294475,1583294476,1583294537,1583297835,1583295796,cf69b6cd864c333512184d4946a26de2,a1ae0cb48257288cdd4a6693e7888737
10007871,0,2100076291476456588,正常天气,121.650878,39.149329,121.629924,39.133251,1583294943,1583295364,1583295436,1583298423,1583296624,0e04b88ee8dfce5cc642c89a1191e4e1,d6c4592aaae790ccf28850baf20b0de8
10007871,0,2100076292688544827,正常天气,121.630727,39.143733,121.651494,39.149401,1583295441,1583295442,1583295496,1583297901,1583296042,cf69b6cd864c333512184d4946a26de2,ba113afe127ed1bfc9f41e46d846ca1d
10007871,0,2100076295223542874,正常天气,121.636701,39.141801,121.631214,39.133711,1583296077,1583296078,1583296096,1583298657,1583296678,0e04b88ee8dfce5cc642c89a1191e4e1,1af41a72adbdb2abd7a2dab03e357bcf
100084429,4,2100076324929308083,正常天气,121.249438,38.950048,121.251354,38.945311,1583315342,1583315344,1583315455,1583317142,1583316064,3886fad9901355114aedcf8408250b66,59cbbffa659d761b90ac2fc113ed3de1
100084429,4,2100076328335574244,正常天气,121.24865,38.948363,121.266234,38.934851,1583315835,1583315836,1583315875,1583318656,1583317096,2faf34db404c39413ec40567fd794398,9c416b95d134dc0256deb6562cb06b3f
100084429,4,2100076326574359780,正常天气,121.24865,38.948363,121.265414,38.940551,1583316105,1583316106,1583316115,1583318386,1583317126,923cb82b26dc5d13770a546cba0df268,9c416b95d134dc0256deb6562cb06b3f
100084429,4,2100076328185562340,正常天气,121.24865,38.948363,121.282924,38.939441,1583316301,1583316302,1583316416,1583319362,1583317502,8e2704cb6d07302696bd710b7f526f99,9c416b95d134dc0256deb6562cb06b3f
10012508,2,2100076281984189524,正常天气,121.522544,39.292503,121.530384,39.297051,1583292913,1583292915,1583292966,1583295613,1583293995,db2d4278c7682f66594ce40df48af137,db93f7c9e579b53890e79fc5071f32f2
10012508,2,2100076284824585851,正常天气,121.522544,39.292503,121.520184,39.295731,1583293207,1583293213,1583293266,1583295127,1583294293,e9aa84196fa1300e2d1db6d179bd440d,6f5002b6a0541de8c68b760c17d9b4ab
10012508,2,2100076289189054362,正常天气,121.525883,39.293043,121.531364,39.313551,1583294419,1583294420,1583294525,1583297059,1583295500,91e944676fc75d92ed8fa14717bace2f,4f7a67a1358d6f6eead3e7b221eeca2f
10012508,2,2100076289837664154,正常天气,121.525883,39.293043,121.524614,39.296381,1583294834,1583294835,1583294885,1583296634,1583295915,8c912de2b708a7627b7211e9f0700192,4f7a67a1358d6f6eead3e7b221eeca2f
100149376,0,2100076268891506514,正常天气,121.44382,39.210261,121.441134,39.205781,1583288143,1583288144,1583288154,1583290363,1583288864,a3397c83aa339f6f8f90d141e618c046,dada77ecc93e559bdad32421b6cefe9a
100149376,0,2100076271047214396,正常天气,121.436967,39.209952,121.461274,39.233351,1583288479,1583288480,1583288514,1583291539,1583289560,af990c48d944f73d73f2ef9cef7de26f,bd40b78857282e8450f0dae27ef953f4
100149376,0,2100076269520192997,正常天气,121.452104,39.210076,121.462824,39.231551,1583289074,1583289076,1583289114,1583291294,1583289616,9fc1b83c8c24b07b5911806d6e865ddb,e3f9fc407a23df31bf54073da66c7708
100166169,0,2100076276531889738,正常天气,121.561998,39.15879,121.553064,39.173381,1583290912,1583290914,1583290935,1583294392,1583292114,ad0c126207faf2aab106af18b15c3925,c77be9266ca730eb3b683e045dc6bd5b
100166169,0,2100076276294649501,正常天气,121.562688,39.153285,121.547104,39.175831,1583290954,1583290957,1583290996,1583294254,1583292157,e2c5f29b1ed4fdffd9837e3492e7d7a3,3c87ec066c9daeae13b87025fb83baff
100166169,0,2100076276366935874,正常天气,121.549914,39.154491,121.560204,39.157741,1583291071,1583291071,1583291117,1583293291,1583292151,3d36e02ada0a64c08b566a39afb6a963,27a4035010af9d03d4f621c3786d7a6e
100166169,0,2100076279054731113,正常天气,121.563784,39.166741,121.533784,39.175491,1583292096,1583292097,1583292259,1583295396,1583293177,b7446a5375f384873c160872298bc028,82e5875f6947011ad61575ec523bd097
100166169,2,2100076315444249884,正常天气,121.568617,39.169315,121.574004,39.174381,1583309151,1583310940,1583310974,1583319951,1583311460,6060d83a321e162a1bf67d8b39dc8b6c,859ff8a293fd63045fd8886e888ae5e6
100166169,2,2100076315847525655,正常天气,121.567378,39.154037,121.566164,39.171631,1583309300,1583309302,1583309354,1583311520,1583310202,48ee039537532a1033e9658d55b35273,d47e79a292a05c5ccf1008d5c999e8c6
100166169,2,2100076317122167994,正常天气,121.567731,39.170236,121.577164,39.172861,1583310468,1583310470,1583310494,1583314668,1583312090,31a5211c0f828bb9cd620b0eca0444cf,1fc3d0b7ac24cab06e42d91da299f082
100166169,2,2100076317635741475,正常天气,121.568242,39.168318,121.575714,39.173821,1583311675,1583311678,1583311695,1583315395,1583313478,867c1f6c924cecaf21dee724bb6e51c4,cc6a6abc159d35f469d6a4fbd85c1a31
100166169,4,2100076332179654279,正常天气,121.558242,39.158033,121.552604,39.168931,1583317290,1583317292,1583317755,1583319870,1583318552,a04267b538ba12e786385a9302fb94d9,68c53ffad29c5ae761a33cb8b518f1e6
100166169,4,2100076330083255678,正常天气,121.567592,39.153504,121.545174,39.170781,1583317419,1583317423,1583317755,1583320659,1583318516,fb542a52dcf53937450639ad7e769abd,56701a700bcce07a0fae3cf7dde82f2a
100166169,4,2100076332899337598,正常天气,121.567592,39.153504,121.538144,39.169821,1583317835,1583317836,1583317875,1583321255,1583318510,110ee1c5bf9386cb966b670af6ab6820,56701a700bcce07a0fae3cf7dde82f2a
100166267,0,2100076266386261051,正常天气,121.418897,39.198005,121.425154,39.196961,1583284819,1583284819,1583291395,1583293500,1583286319,22a0a5330f618800c51069722d197017,d703827b8a8330616dfc66c6a1317a85
100166267,0,2100076266448684974,正常天气,121.419908,39.193907,121.424914,39.197381,1583285337,1583285346,1583291215,1583293500,1583286846,22a0a5330f618800c51069722d197017,5c8458b6e15e8a62ec6487d4f6bd40b4
100166267,0,2100076270761182267,正常天气,121.418897,39.198005,121.424964,39.197011,1583288809,1583288810,1583292236,1583294400,1583290310,22a0a5330f618800c51069722d197017,d703827b8a8330616dfc66c6a1317a85
100166267,0,2100076271961900091,正常天气,121.418897,39.198005,121.427034,39.201631,1583289458,1583289458,1583289474,1583291798,1583290178,c9aa57d5923367ae219bedaa12a9ae96,d703827b8a8330616dfc66c6a1317a85
100166267,0,2100076275843269691,正常天气,121.418897,39.198005,121.433824,39.190811,1583290685,1583290686,1583290734,1583293145,1583291406,69436d4ae309d5078cc59b68964d9671,d703827b8a8330616dfc66c6a1317a85
100166267,0,2100076276805371317,正常天气,121.428403,39.196135,121.424054,39.193241,1583290813,1583290813,1583290856,1583292613,1583291413,776a2042cabb8fc83f229f6c364bb7aa,dba61f68d48c3255dd915d591782551f
100166267,0,2100076276311688629,正常天气,121.428403,39.196135,121.423184,39.194241,1583290984,1583290984,1583291035,1583292784,1583291584,1ef9428610f406ea1c54eb1c2f786bf6,dba61f68d48c3255dd915d591782551f
100170616,0,2100076270089930655,正常天气,121.472617,39.199217,121.488414,39.189341,1583288217,1583288820,1583288834,1583292117,1583290560,5cd2b5bd6c991ee7172f3b90ddd969a8,64cf0ecac2051c398c170b4c78d9a334
100170616,0,2100076270049690874,正常天气,121.483879,39.18669,121.491664,39.188571,1583288431,1583288433,1583291777,1583294400,1583289933,367e7eb774a3de7fb960835142160918,bd831ecbf6784afeaac44d632cf87a53
100170616,0,2100076272964306504,正常天气,121.483381,39.197301,121.486774,39.188721,1583289733,1583290035,1583290095,1583291953,1583290935,643c25e4b9585bc9788ecc544aad6548,772caa45a4c961122104ca75e95280a8
100170616,0,2100076274691540218,正常天气,121.483879,39.18669,121.498604,39.189481,1583290848,1583290849,1583290859,1583292600,1583292349,06251fa672b4218488b87b6d453b77e4,bd831ecbf6784afeaac44d632cf87a53
100170616,0,2100076282227918524,正常天气,121.491998,39.187331,121.491464,39.188481,1583292361,1583292367,1583292376,1583295961,1583293627,367e7eb774a3de7fb960835142160918,380f40d4123fdc6ba5ee46052878029c
100170616,0,2100076285082011324,正常天气,121.491998,39.187331,121.489434,39.191991,1583292901,1583292909,1583292916,1583295301,1583294169,260afa952024f095244c3041045d63fe,380f40d4123fdc6ba5ee46052878029c
100170616,2,2100076314767525417,正常天气,121.478608,39.199975,121.471214,39.197111,1583310133,1583310133,1583310194,1583312413,1583311033,2abb9bcd38e3d213a606c7ba31f500b7,fee9523aa66c86098ffa47a361692d3a
100170616,2,2100076316857337260,正常天气,121.467715,39.199628,121.468934,39.191791,1583310641,1583310644,1583310674,1583313341,1583311904,f09ef600750ccd45de4b34f1d392a438,4cc05b35c2f937c5bd9e7d41d3686fff
100170616,2,2100076315633485228,正常天气,121.467715,39.199628,121.468934,39.191791,1583310688,1583310691,1583310734,1583313208,1583311131,f09ef600750ccd45de4b34f1d392a438,4cc05b35c2f937c5bd9e7d41d3686fff
100177162,0,2100076273738089548,正常天气,121.612551,39.118787,121.581774,39.101891,1583290348,1583290355,1583291265,1583294400,1583291855,5990a60939edee42dcfba29354bbe885,3c0725a0fa92437018ec5d8b47af1e09
100177162,0,2100076277462238912,正常天气,121.616096,39.113456,121.589164,39.105951,1583291021,1583291023,1583291085,1583293541,1583292283,de06c21c551f078a55e5d9428ed14bd1,6d325baa1e7d1cccc5eac1ab5d5638ed
100177162,0,2100076275442419077,正常天气,121.610704,39.118791,121.595244,39.107551,1583291045,1583291046,1583291085,1583293445,1583292126,9fdc7dc7bdd5386bbaa38aa38323d675,39033a9ac9e58b95fe4d18a01f399715
100177162,4,2100076326170232449,正常天气,121.604058,39.118702,121.619774,39.112391,1583315582,1583315584,1583315624,1583317982,1583316664,2dd7c1333118eebbbece72e0bb52316b,445d224d706b5fb89c3509cc18696c20
100177162,4,2100076327626114689,正常天气,121.604058,39.118702,121.614664,39.110441,1583315586,1583315588,1583315624,1583318046,1583316848,e4a601e56a73629e3bc79eeb3b8dbf8f,445d224d706b5fb89c3509cc18696c20
100177162,4,2100076328672265935,正常天气,121.612116,39.118001,121.619514,39.112621,1583315804,1583315804,1583315865,1583317604,1583316704,2dd7c1333118eebbbece72e0bb52316b,0ee2d770d133643072b60493fe682c37
100177162,4,2100076330679436992,正常天气,121.616096,39.113456,121.595444,39.116001,1583317139,1583317141,1583317304,1583319779,1583318221,e6bc578d9b6058d9a38ca15af3100e44,6d325baa1e7d1cccc5eac1ab5d5638ed
100177162,4,2100076331013310154,正常天气,121.611027,39.119074,121.600924,39.116641,1583317311,1583317320,1583317365,1583319351,1583318400,4fa177df22864518b2d7818d4db5db2d,e29ad95a24abf5ac5f268f0bc978ded1
100177162,4,2100076332947769034,正常天气,121.611027,39.119074,121.599764,39.116581,1583317991,1583318001,1583318024,1583319911,1583318721,4fa177df22864518b2d7818d4db5db2d,e29ad95a24abf5ac5f268f0bc978ded1
10021791,2,2100076277225457029,正常天气,121.446917,39.210012,121.466394,39.217451,1583291147,1583291150,1583291158,1583293427,1583292230,1f04e0a37fa991e01540253ff04c9eb4,481393d0db6ec38a9114882bfb944eb5
10021791,2,2100076276444071735,正常天气,121.44736,39.211273,121.463354,39.219441,1583291195,1583291197,1583291215,1583293535,1583292277,d92bf98fb23cc8d2405fded8fa4f8746,c84185c15535df58a517756d9f4cb544
10021791,2,2100076281939133829,正常天气,121.446917,39.210012,121.461824,39.225071,1583292778,1583292780,1583292837,1583296378,1583294880,3871982c36da71898cbb5bdbfeb11031,481393d0db6ec38a9114882bfb944eb5
10021791,2,2100076284430255555,正常天气,121.447116,39.210352,121.456864,39.217001,1583292802,1583292803,1583292837,1583295502,1583293703,c2ae7439b269b18b25fc2c7b4c5e0734,215b931844ff0a296cbeca539067babf
10021791,2,2100076283262534805,正常天气,121.446604,39.210091,121.460034,39.231221,1583292883,1583292884,1583292896,1583295943,1583293604,9fc1b83c8c24b07b5911806d6e865ddb,724cb98f99760fa62c34bb6b103129e7
10021791,2,2100076283781350789,正常天气,121.446917,39.210012,121.461464,39.228961,1583292898,1583292901,1583292956,1583296558,1583295001,d32c4fb04bf19a99223f3d7ddee61e64,481393d0db6ec38a9114882bfb944eb5
10021791,2,2100076284711831123,正常天气,121.446893,39.205876,121.453044,39.215871,1583292946,1583292949,1583292956,1583295166,1583293293,8deea9e57ac72c3a284b7e3817659a16,c7fe31139b02bf53003cd9a8d71d4936
10021791,2,2100076283336197871,正常天气,121.446684,39.206159,121.455484,39.218051,1583292990,1583293003,1583293016,1583295870,1583293903,ca439c325342f03a118d818268722c01,fff5667fb4e861f4cbefc270e44a9d08
10021791,2,2100076284306097301,正常天气,121.446604,39.210091,121.453044,39.215781,1583293083,1583293084,1583293136,1583295603,1583293984,e8a90cc5d32550628e35a33bead58bf6,724cb98f99760fa62c34bb6b103129e7
10021791,2,2100076285492626581,正常天气,121.446604,39.210091,121.452244,39.216081,1583293154,1583293155,1583293196,1583295314,1583294055,216815053cc30a13626b31036b5966ce,724cb98f99760fa62c34bb6b103129e7
100240426,0,2100076275487180220,正常天气,121.451926,38.94851,121.440174,38.955451,1583290345,1583290356,1583291161,1583293500,1583291856,0cabe1b58b86d81b363683dd615b2086,08f409e54a4e7d8a70f79ed1fb1a618b
100240426,0,2100076282625590682,正常天气,121.444898,38.956084,121.445114,38.950831,1583292581,1583292611,1583292660,1583294741,1583293511,a6d3fec8637ed885679123969895d806,37a1c689761ff5419bae078458e84446
100240426,0,2100076288528319751,正常天气,121.445014,38.948537,121.449164,38.946541,1583294096,1583294096,1583294219,1583295896,1583294816,326c87cab8e28d5c8d657d573f6c51bf,661d852dfe4867978642efdbd288ba58
100240426,0,2100076289183352071,正常天气,121.445014,38.948537,121.446474,38.947181,1583294401,1583294402,1583294460,1583296201,1583295302,326c87cab8e28d5c8d657d573f6c51bf,661d852dfe4867978642efdbd288ba58
10038661,0,2100076271851472117,正常天气,121.424182,39.247667,121.436494,39.240371,1583290127,1583290127,1583290149,1583292287,1583291027,85254e752fd60f540b9ffcf9aa4d8d8f,5182b7c7b0020aecc23387d3986314ab
10038661,0,2100076273443472629,正常天气,121.424182,39.247667,121.428994,39.247021,1583290157,1583290158,1583290210,1583291957,1583290878,15b22151c56a90adedc57ce522dd0148,5182b7c7b0020aecc23387d3986314ab
10038661,0,2100076276036339306,正常天气,121.424929,39.246393,121.425024,39.252561,1583291088,1583291090,1583291172,1583294688,1583292350,7ae25fc07834758f82ea8cd8d40e4283,a308f22e450be5099f317bfe1a4fd48b
10038661,0,2100076275726288490,正常天气,121.424929,39.246393,121.427564,39.252171,1583291253,1583291257,1583291290,1583293593,1583292337,59b0269c36da7c6b0861da30c7cc2025,a308f22e450be5099f317bfe1a4fd48b
10038661,0,2100076281312708507,正常天气,121.42049,39.253781,121.416784,39.269311,1583291801,1583292403,1583292432,1583294981,1583293061,d1956877285ec7697f02784f5139396b,a77602e18da1083c232940de69d54ac0
10038661,0,2100076278731638510,正常天气,121.424906,39.252809,121.425664,39.253071,1583291842,1583291847,1583291891,1583293642,1583292447,59b0269c36da7c6b0861da30c7cc2025,eaf6b1878045b0f5eb87540df4d1d218
10038661,0,2100076282470106991,正常天气,121.42514,39.24911,121.416494,39.266181,1583292022,1583292322,1583292434,1583294962,1583293342,8348024d5e45c8c9c84e21b48f16f1cb,6b72e396bf24f5a82d19f2590ca9278b
10039046,0,2100076262676006133,正常天气,121.424182,39.247667,121.421594,39.254381,1583281376,1583281377,1583281388,1583283236,1583282157,b48d5d9b5c0ad743cb7921940b092ea3,5182b7c7b0020aecc23387d3986314ab
10039046,0,2100076264821916828,正常天气,121.42691,39.255186,121.406644,39.259731,1583281520,1583281521,1583281748,1583284280,1583282781,cc487e4bdcb2a543a8804171df20f89b,a6ccb0755af12ff80074c7474eb20645
10039046,0,2100076264478278807,正常天气,121.422518,39.255627,121.406214,39.248891,1583281680,1583281730,1583281748,1583283600,1583283230,24762cabf5d3c0c8dd57e1373a97406f,f8862ffc07582aad4f3c5a6965f9ac09
10039046,2,2100076291989177949,正常天气,121.424583,39.246226,121.397874,39.237771,1583295030,1583295032,1583295071,1583298630,1583296472,a5b43ef940c368f19741766378d521c5,2770d59e5815c2fe34312a49232dcb37
10039046,2,2100076290839086470,正常天气,121.413593,39.242075,121.398234,39.238131,1583295077,1583295082,1583295131,1583297777,1583295622,a5b43ef940c368f19741766378d521c5,942eb177868ad8058ee079cdda0cec4a
10039046,2,2100076292758570374,正常天气,121.413593,39.242075,121.411764,39.241781,1583295824,1583295829,1583295850,1583297624,1583296549,06c3f5e5513b7ee5283800a7df559b3e,942eb177868ad8058ee079cdda0cec4a
100429202,4,2100076320101565622,正常天气,121.339429,39.124236,121.315214,39.127571,1583312620,1583312623,1583315030,1583317800,1583314123,ec630e89a5811339de08201f4d778017,37c3e2130115a9e7e5ee9b639220338b
100429202,4,2100076319861442333,正常天气,121.374426,39.135681,121.358034,39.122211,1583312773,1583312775,1583312985,1583315353,1583313675,708dc9630c5bd61ca1143e3440f810b4,d9af7c7a77253760c3f3a5a4984558e7
100429202,4,2100076320766493769,正常天气,121.374729,39.135643,121.366524,39.131051,1583312961,1583312963,1583313046,1583315121,1583314223,34ce2d8fb4291325936e9f6d0ffbb415,df524bf0652ade63387ef136b19758d4
100429202,4,2100076323984737849,正常天气,121.353243,39.122024,121.340584,39.124521,1583313951,1583313958,1583314065,1583316171,1583315038,48e391f4e8c08292fe0c1b6d3bcab060,5f7a39d0f5f5b16714703a169b9780db
100429202,4,2100076324827137725,正常天气,121.339483,39.123652,121.325404,39.121101,1583314385,1583314908,1583314965,1583323385,1583316185,db062d5f573c1600ed47848eb04fb6bd,94a76b75ecfca67aeb978a9ec9e8b068
100429202,4,2100076325256136381,正常天气,121.339483,39.123652,121.326064,39.121351,1583314816,1583315405,1583315446,1583323816,1583316796,db062d5f573c1600ed47848eb04fb6bd,94a76b75ecfca67aeb978a9ec9e8b068
100429202,4,2100076324819338422,正常天气,121.339429,39.124236,121.331004,39.117281,1583314887,1583314890,1583314966,1583319207,1583315970,47eb4b378f1738f2834c81d015cea8a1,37c3e2130115a9e7e5ee9b639220338b
100429202,4,2100076323591226714,正常天气,121.339498,39.12473,121.328444,39.123931,1583315101,1583315101,1583315146,1583318041,1583316181,f09f8636b8ec32176b9f39e06dd55f8b,f7896dbd8172d81857b79fd77c895da4
100429202,4,2100076326629147917,正常天气,121.3408,39.124462,121.330844,39.118761,1583315192,1583315206,1583315265,1583317712,1583315926,6199908f4814f51c1441e063d9f5a8aa,e626f66b26473ca60e0426ccd23bcf12
100429202,4,2100076329277555991,正常天气,121.338891,39.123841,121.332664,39.124031,1583316268,1583316280,1583316345,1583318968,1583317540,6a7045eead79a8eacb19332003063c29,f3a2fdc60bc3b13e4cf90dd1164e2f82
100429202,4,2100076329680275133,正常天气,121.339483,39.123652,121.330904,39.121111,1583316372,1583316954,1583317007,1583325372,1583318352,7d8cff61c664cdbf2480f857ffe1d19c,94a76b75ecfca67aeb978a9ec9e8b068
100429202,4,2100076330922017974,正常天气,121.339429,39.124236,121.328754,39.115891,1583316717,1583316720,1583316946,1583319777,1583317980,3afe6a99b6e7a1de3af34bd4a6c198b9,37c3e2130115a9e7e5ee9b639220338b
10043299,0,2100076275496519600,正常天气,121.589695,39.216457,121.580544,39.212701,1583290385,1583290388,1583292009,1583294400,1583291888,fd346f06491b5c7f7982fd9b2f87f284,181015cb5c4afb609375e5b63a6a6a64
10043299,0,2100076276368475565,正常天气,121.593974,39.213941,121.580664,39.212451,1583290773,1583291074,1583291113,1583293833,1583292033,fd346f06491b5c7f7982fd9b2f87f284,9d8498efbb2e07f8a3715e3e98623fc2
10043299,0,2100076274121705152,正常天气,121.594309,39.213885,121.582404,39.215361,1583290842,1583290843,1583290872,1583293302,1583291443,7847d86574c9c14bf8427155de0e5b1c,0a46459d166a0a27e33fdc52fb86d36b
10043299,0,2100076276056819000,正常天气,121.594536,39.214315,121.586344,39.210921,1583291126,1583291128,1583291175,1583294426,1583292748,4d32842047717ad462fc3cf13f51a05c,82e1b6d63ade68c17efccc1cea2fb0a4
10043299,0,2100076277791589956,正常天气,121.593599,39.214292,121.580824,39.212861,1583291172,1583291173,1583291232,1583296392,1583292253,fd346f06491b5c7f7982fd9b2f87f284,8ddeadbec2c568a42fea34d4bb78a9c2
10043299,0,2100076277550318849,正常天气,121.595621,39.214057,121.580474,39.212311,1583291237,1583291244,1583291293,1583293997,1583292024,fd346f06491b5c7f7982fd9b2f87f284,79e553ba1d934333b04217ef4a8ccb5f
10043299,0,2100076275787826989,正常天气,121.593532,39.214651,121.594174,39.214611,1583291391,1583291393,1583291413,1583293431,1583292233,8e7e1329aaa121a22266e43f69da68b2,a05a1241ad4295ecd6aeac6aae2c542f
10043299,0,2100076289813775778,正常天气,121.595435,39.216361,121.591144,39.216611,1583294731,1583294738,1583294773,1583297851,1583296178,2d0da190f8a09bd385ba8ada79f857fb,ac7a91c6cd626e354b0c1dd1178c98e6
10043299,0,2100076291925411760,正常天气,121.589695,39.216457,121.586314,39.211071,1583294866,1583294867,1583294894,1583297926,1583295707,4d32842047717ad462fc3cf13f51a05c,181015cb5c4afb609375e5b63a6a6a64
10043299,0,2100076292635100533,正常天气,121.590821,39.214831,121.582484,39.215311,1583295060,1583295060,1583295075,1583298480,1583296190,7847d86574c9c14bf8427155de0e5b1c,cfcd208495d565ef66e7dff9f98764da
10043299,0,2100076292324230623,正常天气,121.595258,39.216399,121.567434,39.215611,1583295136,1583295138,1583295194,1583299036,1583296398,6851e805f704deb7c85f454aa0b8de30,62f8b654c50b603fec737639fc3c2e9e
10043299,0,2100076293414455164,正常天气,121.591264,39.214691,121.586314,39.211071,1583295697,1583295698,1583295732,1583298457,1583297498,4d32842047717ad462fc3cf13f51a05c,53ac2018ad6a65afe46d02c8921c7fcc
10043299,0,2100076295179110268,正常天气,121.591264,39.214691,121.582044,39.212351,1583295838,1583295839,1583295853,1583298778,1583297459,7847d86574c9c14bf8427155de0e5b1c,53ac2018ad6a65afe46d02c8921c7fcc
10043299,0,2100076293503223698,正常天气,121.591323,39.217697,121.573454,39.215571,1583295937,1583295938,1583295974,1583299417,1583297198,08781efdaa66fc2e09972a499584e3dd,b74f372be79ae74e25a7674dd462d0cd
10043299,2,2100076286716610521,正常天气,121.58718,39.215207,121.595234,39.214181,1583293359,1583293360,1583300350,1583302500,1583294860,8e7e1329aaa121a22266e43f69da68b2,ef619bde30478166218cdb7c9a0d4136
10043299,2,2100076302822868097,正常天气,121.593599,39.214292,121.579664,39.213241,1583300479,1583300479,1583300530,1583302399,1583301199,22adb87c274bf62cd10e7063a8465d0f,9b06ec576fcb6f43b0b58bf3d90fee4f
10043299,2,2100076302832174876,正常天气,121.593646,39.213931,121.574514,39.214101,1583300559,1583300561,1583300589,1583303139,1583301221,b337247f2fb2c4d3c6ab1a359fa082cb,f7f5a265faf962d428446481e7bdb671
10043801,0,2100076276508001704,正常天气,121.449144,39.115701,121.460834,39.127301,1583290814,1583290817,1583290877,1583293754,1583292077,0824d8a3c29214dc870144db368cc702,85e3bf62f2c3a80bb93755fc8b242ae3
10043801,0,2100076275429672440,正常天气,121.449218,39.115912,121.447014,39.117351,1583291013,1583291018,1583291056,1583292873,1583291918,19502a4ff57e300ebf48c724578e55c8,316f13fc52a9e31041f8699ccc399d23
10043801,0,2100076275708823541,正常天气,121.449298,39.115643,121.457774,39.131381,1583291218,1583291221,1583291237,1583293618,1583291941,793d3025f79cacef95f3be0f6c9f627b,56640f5a15506e7f617cc4e7f1ced85b
10043801,0,2100076277054474229,正常天气,121.449298,39.115643,121.468334,39.130201,1583291480,1583291483,1583291537,1583294240,1583292203,d7ceb6ca356a8bf283bdca2d2c32b55c,56640f5a15506e7f617cc4e7f1ced85b
10043801,0,2100076279500310259,正常天气,121.459656,39.131357,121.457124,39.137161,1583291819,1583291885,1583292078,1583294759,1583293619,df0e09d6f25a15a815563df9827f48fa,032732fe4e34dfc5f6f4f49bb43dac67
10043801,0,2100076281724241450,正常天气,121.459554,39.126583,121.457954,39.131291,1583292008,1583292009,1583292198,1583294828,1583292909,793d3025f79cacef95f3be0f6c9f627b,44d1a438513be1634d6ba62fcb329439
10043801,0,2100076281429395323,正常天气,121.465994,39.128885,121.441944,39.140211,1583292026,1583292027,1583292078,1583295266,1583293107,347b47605d540f74b6de1e4bd10f7840,e64898cb37384b68168248e1728ef793
10043801,2,2100076312797644242,正常天气,121.449187,39.115724,121.464394,39.143151,1583308863,1583308864,1583308874,1583311743,1583309464,9e3908f1da27d13101212c9cdf9a3f78,17819a38165034124b145945e34c520b
10043801,2,2100076313735300840,正常天气,121.462846,39.139322,121.468304,39.152961,1583309541,1583309542,1583309774,1583312301,1583310742,c44bc9b595bedd19ea6d0b10b33c9127,4405d994fcad35c9816dd6f4c1cd45bf
10043801,2,2100076314004850408,正常天气,121.462846,39.139322,121.464604,39.146531,1583309802,1583309803,1583309834,1583312382,1583311003,df89878d86ca2563d4e306df25064bef,4405d994fcad35c9816dd6f4c1cd45bf
10043801,6,2100076344684938811,正常天气,121.462288,39.125596,121.454984,39.130151,1583324824,1583324825,1583324834,1583326744,1583325905,0279dc796f315eb324014c719a3ae634,f1954d8234b513043fc3a3cb65e06698
10043801,6,2100076343800006581,正常天气,121.461934,39.132021,121.452794,39.130011,1583324866,1583324866,1583324894,1583326666,1583325526,7eb7735572088197707d3d128ea48974,5c4730e1dfce1e3266cf51894495d03d
10043801,6,2100076345338430971,正常天气,121.452841,39.131685,121.457234,39.127221,1583325799,1583325800,1583325855,1583327839,1583326880,849ba62f0eef3d48aa0d8b87e11d56e7,fdcb77a51fb333d5bd2f1cdc4a0a9b7c
10043801,6,2100076344197285748,正常天气,121.454064,39.131381,121.459474,39.145781,1583326478,1583326480,1583326514,1583329838,1583327920,ab531756624d8287d38eb5fe5809bdb4,9495d34692742fd1b96fdf0a7d332bb6
10043801,6,2100076345106794141,正常天气,121.454071,39.131391,121.459304,39.136841,1583326897,1583326899,1583326934,1583329117,1583328339,052dccc301a9484f6c4eee7529840fa7,2a105749194b245dc8fed18134ced7a6
10063068,0,2100076279188063358,正常天气,121.483819,39.06463,121.481654,39.089781,1583291527,1583291527,1583291561,1583294347,1583292247,71bda02b51babe11481555439c975751,7b22b84bfcae98d151aca378c80c0ae9
10063068,0,2100076279211787704,正常天气,121.479623,39.072055,121.478664,39.097401,1583291580,1583291582,1583291621,1583295120,1583292782,0fb50a9415a5786723b1058ad7e0f1e1,00d112cc38b558acc5d0277a42c19e10
10063068,0,2100076280597316877,正常天气,121.479704,39.072481,121.485304,39.093941,1583292234,1583292237,1583292281,1583295534,1583293137,7a273f45806329681decc8f265c302d6,a977edcda5a5b058fa5da310a960e7d7
10063192,0,2100076282381632920,正常天气,121.478006,39.071964,121.498334,39.076451,1583292167,1583292167,1583292221,1583294687,1583292947,36534ec65b3f914eda0de00f843bd6e2,fd06d3c70d0f007e3159d88515e25b43
10063192,0,2100076284407153814,正常天气,121.480457,39.072797,121.497314,39.073631,1583292742,1583292745,1583292762,1583295382,1583293885,9c4c04a7fabf0f09abd16121635452b5,7004e85d2a96b9d63a5bdd91f0cf1bf3
10063192,0,2100076285056910519,正常天气,121.479464,39.072567,121.503434,39.073221,1583292844,1583292845,1583292881,1583295544,1583293625,32ff526ed29e1b8b4420a24e2a9ea4df,4ef1eaba3b6fb3e847f0ac7758983015
100681730,0,2100076276807009449,正常天气,121.595654,39.13694,121.598624,39.132981,1583290818,1583290818,1583290867,1583293038,1583291059,40d096df6b8ecc15bd8cf38b7794308f,5f4daff1c024a22c95d3e25df4be80dd
100681730,0,2100076278762014023,正常天气,121.594353,39.13361,121.587944,39.149071,1583291313,1583291314,1583291347,1583295213,1583293114,0fce067d02b657a409dbb7a9a6976e32,0ef5976981064f8f741097bd10186748
100681730,0,2100076278834070784,正常天气,121.590798,39.132015,121.598134,39.150481,1583291599,1583291605,1583291949,1583295139,1583292385,19fdf69623bd691d156752301c9a9936,93182e1cb1a220c17a49060e19701931
10075573,0,2100076275110381016,正常天气,121.549799,39.133219,121.541504,39.139651,1583291094,1583291094,1583291105,1583293314,1583291814,57d06bf2f8499858a03b604d9b3f81b7,d507b631718eab756606395ffc5e309f
10075573,0,2100076277102347438,正常天气,121.549705,39.133891,121.545054,39.140751,1583291581,1583291582,1583291586,1583293801,1583292302,0919c1a577dba56794293b17f159f4f1,b463ecd7f8db680640c7902671c26fee
10075573,0,2100076280468112976,正常天气,121.550155,39.133709,121.548324,39.148841,1583291781,1583291784,1583291825,1583294301,1583292444,616d9fc34b037d75ee46cb33ed0af3b5,3860e3786e1c28b5f99c98a18ec58e6c
10075573,0,2100076281445483992,正常天气,121.549799,39.133219,121.549844,39.152891,1583292054,1583292054,1583292066,1583294994,1583292774,14e190c2c5fc25606bc0c1c0534d6053,d507b631718eab756606395ffc5e309f
10081729,0,2100076262740985088,正常天气,121.540846,39.151316,121.558094,39.152661,1583269280,1583269281,1583284060,1583290380,1583270781,4f5a97cf06cf69028997db51d8726d28,c7d29a336f149fe8d299d01588370087
10081729,0,2100076266995188992,正常天气,121.540846,39.151316,121.548304,39.148571,1583283938,1583283939,1583283999,1583285738,1583284659,616d9fc34b037d75ee46cb33ed0af3b5,c7d29a336f149fe8d299d01588370087
10081729,0,2100076268404212762,正常天气,121.543844,39.152091,121.532884,39.157131,1583286793,1583286844,1583286879,1583288593,1583287324,e5d6120155c3d0c0e04b547a8a1b7894,5add2072ca8069a300fdc078d203899c
10081729,0,2100076268506088740,正常天气,121.539064,39.160881,121.535894,39.168421,1583287992,1583287993,1583288020,1583289793,1583288593,ff2cb5bdaf07821a1c6d5ad6234bb584,a35507279fcbbdf1b12dd0216a08ca97
10081729,2,2100076286628693442,正常天气,121.535238,39.162382,121.513764,39.163131,1583293146,1583293147,1583293241,1583296326,1583293867,9626099bff15d95c3ddf29446113734b,92a64ce7976581ee2f364211d188c10e
10081729,2,2100076286753867191,正常天气,121.530032,39.159756,121.515994,39.164031,1583293439,1583293440,1583293541,1583295719,1583294520,492b32f649856e1e7f365bb1fc808cab,e1bdebcf32abcf37192baa08a9c00695
10081729,2,2100076287871976971,正常天气,121.521218,39.163793,121.512924,39.148171,1583294145,1583294445,1583294501,1583296785,1583295525,fd2f19c343e3bb69746476ba92aa42f6,57359ed3b313755fd8fd04832e27bd75
10081729,2,2100076287589844469,正常天气,121.519799,39.159071,121.517154,39.158661,1583294159,1583294162,1583294200,1583295959,1583294355,8faede30b9d3adfc190c54ad10c89256,e9665a65b4619c2a30c5350e565167c7
10083928,0,2100076264467498227,正常天气,121.596515,39.208051,121.598034,39.209571,1583281651,1583281652,1583281698,1583283452,1583282372,aad36aac60076e00c8ce60ed30defd71,5b1978ec60ca07145ff732390e77e275
10083928,0,2100076263603668787,正常天气,121.593298,39.215269,121.601634,39.226191,1583281867,1583281868,1583281878,1583283667,1583282408,8a1068334c160bb49438aafe8043afff,47bf4b9179f675a9dec9d037a3df9d3f
10083928,0,2100076263613072919,正常天气,121.595408,39.216336,121.600624,39.224101,1583281976,1583281977,1583281998,1583283777,1583282757,75b79d08f7396d48b3a9afb31f856443,973e896de6d44dfc65fa5f1989287a51
10083928,6,2100076302790395123,正常天气,121.596515,39.208051,121.598654,39.207611,1583300035,1583300035,1583300058,1583301835,1583300310,aaef25bc281752fd8af37a8836dc362c,5b1978ec60ca07145ff732390e77e275
10083928,6,2100076300274599066,正常天气,121.593372,39.204576,121.585134,39.202371,1583300298,1583300299,1583300658,1583302099,1583300509,fe54d6a972ffff5accb9386250829c69,e1112ceaa3591fd4f172ec96424e3ea6
10083928,6,2100076302525925105,正常天气,121.593862,39.207434,121.593944,39.207301,1583300419,1583300421,1583300539,1583302221,1583300675,240ac9371ec2671ae99847c3ae2e6384,219411019ea21b2fc60183646e3d9cf9
10100267,0,2100076271811299265,正常天气,121.41684,39.262167,121.428434,39.260681,1583289867,1583289867,1583290807,1583293227,1583290527,ecdc3143bbe8eb7d70b3b2e23927f711,f042cdf44a61a1d286a5a2893d5b4c6f
10100267,0,2100076275454411928,正常天气,121.415025,39.261668,121.441084,39.263331,1583290922,1583291104,1583291171,1583294162,1583292184,f5ae7386c8f370ab7b27e023ba810ac3,2602cb1b64f25293093f810d6c22f379
10100267,0,2100076276554237159,正常天气,121.417075,39.260503,121.420954,39.259441,1583291025,1583291034,1583291046,1583292825,1583292114,97cf0091a141a3b837f2cf5f6940c1cc,cd124cb3a1096807329fec1d6a0ee1e9
10100267,0,2100076275643155687,正常天气,121.417075,39.260503,121.430414,39.265601,1583291061,1583291069,1583291470,1583294400,1583292569,c5e5fe897b50439d66190297f995eb5c,cd124cb3a1096807329fec1d6a0ee1e9
10100267,0,2100076275482068199,正常天气,121.417075,39.260503,121.420494,39.258181,1583291194,1583291198,1583291228,1583293114,1583292278,0b955f952ac2664f28d1106933a8bbeb,cd124cb3a1096807329fec1d6a0ee1e9
10100267,0,2100076278458549753,正常天气,121.418655,39.26121,121.428224,39.260831,1583291332,1583291332,1583292133,1583295300,1583292832,ecdc3143bbe8eb7d70b3b2e23927f711,af3d296f17281d15ec2526582f0d69a5
10100267,0,2100076277315733025,正常天气,121.418892,39.261166,121.430304,39.266231,1583291363,1583291368,1583291471,1583294423,1583292208,c5e5fe897b50439d66190297f995eb5c,95c23d2c60655cd0854badeeee2da105
10100267,0,2100076278924248609,正常天气,121.418892,39.261166,121.436544,39.261591,1583291786,1583291801,1583292133,1583295566,1583293061,65603e7e60e030bc48cfce1f01dd9f72,95c23d2c60655cd0854badeeee2da105
10102738,0,2100076273133029159,正常天气,121.222754,39.128761,121.236964,39.131851,1583290739,1583290740,1583290765,1583292899,1583291640,6017807d16eff9b223f8f3f736acccd2,6183230de6631d54cef192ce16ca95ae
10102738,0,2100076280151377845,正常天气,121.236407,39.123128,121.230114,39.120861,1583291824,1583291830,1583291905,1583293804,1583292910,725123f6bdda3402406a9f113e85e8cd,64d30ea00603a226b8b2059384cb431d
10102738,0,2100076279384344175,正常天气,121.236367,39.123418,121.219834,39.126421,1583292031,1583292035,1583292086,1583294851,1583293175,f58d97cee8abc44c08978ccb3695d0ba,74a4ae3bfd63eb6e1185dfb91c187720
10102738,0,2100076280388191250,正常天气,121.2369,39.122981,121.217074,39.127931,1583292339,1583292345,1583292385,1583295399,1583293305,0ed32e705a58af63698571c2ff4a1ece,39c049917ba37c6ec4c177aadbc1b375
10102738,2,2100076302419068853,正常天气,121.236407,39.123128,121.238994,39.122421,1583299825,1583299846,1583299884,1583301625,1583300506,e3d3a6fbd5d634ce54b013a974f7479b,64d30ea00603a226b8b2059384cb431d
10102738,2,2100076303175713909,正常天气,121.239002,39.120975,121.241084,39.123181,1583300396,1583300398,1583300424,1583303516,1583301298,2a7d5639c10923a37ed88fa6ed7b6419,4909ef9efd0cc5a22194d21c63a8e86b
10102738,2,2100076302946993569,正常天气,121.254673,39.116282,121.236754,39.131341,1583301957,1583301958,1583301984,1583304897,1583303158,69f6d6ca1547586e9e1b0900d9ed45b1,ffe34f9bdca56cf7133ce6f3831dea5c
10102738,2,2100076305978656366,正常天气,121.256421,39.116767,121.258484,39.118891,1583301991,1583301992,1583302044,1583304091,1583302892,8a62389f5a7e490f40434ac5c7b73d40,48da1521603eeaad77c805ddcf822d0f
101147106,2,2100076301254329479,正常天气,121.438471,39.185753,121.422024,39.198511,1583300181,1583300181,1583300209,1583304501,1583302881,e503e0bea5a24b4085ca1dab7f9957fc,0d1870c811d8817c4ed6456f3a27c92a
101147106,2,2100076304023619433,正常天气,121.438974,39.185661,121.432674,39.193261,1583300822,1583300887,1583300928,1583302622,1583301427,3524b449889759b7a6b3b24318add634,e08e07054ac3f8aa55b7c232fd45e12a
101147106,2,2100076302610990978,正常天气,121.438947,39.185557,121.428434,39.196151,1583301088,1583301089,1583301109,1583303068,1583301809,9a30a0b2c90fb5817c2dbf821c2397bd,be257b597bdca6692ede94e9bdef10d8
101147106,6,2100076332644566199,正常天气,121.439461,39.185522,121.433934,39.169801,1583318006,1583318008,1583318150,1583320826,1583319328,0fcbc61acd0479dc77e3cccc0f5ffca7,a4c03c50d85cdc68c978f7568eac681d
101147106,6,2100076332056544439,正常天气,121.439461,39.185522,121.442014,39.164931,1583318350,1583318352,1583318390,1583321530,1583319492,53fde96fcc4b4ce72d7739202324cd49,a4c03c50d85cdc68c978f7568eac681d
101147106,6,2100076332129060199,正常天气,121.437211,39.187783,121.429994,39.168391,1583318623,1583318629,1583318689,1583321083,1583319529,9e40d69e8b4f266a336cf5c71fcbca38,efcfb956cba62504383258664e352112
101147106,6,2100076334290569194,正常天气,121.438876,39.185642,121.436094,39.180231,1583318682,1583318683,1583318689,1583320962,1583320003,f612f157e8c63fa59387945bc5b7c0dd,80a943310ab0a723b6c754a376999bac
101166018,0,2100076272804333388,正常天气,121.479324,39.072031,121.486024,39.082771,1583290372,1583290375,1583290660,1583293500,1583291875,f29972c23e6be02f7270f956c333a792,afa437fb656fe2d48597dd138c6457bf
101166018,0,2100076274474910870,正常天气,121.480457,39.072797,121.487064,39.086641,1583290680,1583290683,1583290720,1583293260,1583291763,48c89ef8d8c19d7500428d61f51cebbd,7004e85d2a96b9d63a5bdd91f0cf1bf3
101166018,0,2100076275599476110,正常天气,121.479739,39.072134,121.485464,39.081311,1583290840,1583290841,1583290900,1583292940,1583291741,cb0af873e8355ff5e5baa69d13d1ad00,c0c7254e6dba9801665af5ec6ece4558
101180274,0,2100076266113041929,正常天气,121.406284,39.084043,121.421774,39.075031,1583284179,1583284180,1583284184,1583286399,1583285080,6a0b01ad299d4211c24730de8226b0f3,c01e5999705be447e9512691e2d0875b
101180274,0,2100076265834841337,正常天气,121.421772,39.075409,121.423154,39.075931,1583284562,1583284863,1583284903,1583286782,1583285822,60b755773dfa372230200d219506e646,4627f997799168c7fab07f77676f719e
101180274,0,2100076267949556756,正常天气,121.405407,39.087493,121.428194,39.075091,1583284617,1583284618,1583284664,1583287197,1583284661,b5185958d04a7399458777a157aa9367,c46d9d744b46b11b7473347bb7427377
10120267,6,2100076334331102844,正常天气,121.429085,39.197715,121.430674,39.202851,1583318187,1583318775,1583318790,1583327187,1583319987,89d6cf2a2c05923e761bf85994fae655,406a47750b2960d4666f4dc63f704d9f
10120267,6,2100076338857576060,正常天气,121.429085,39.197715,121.443374,39.198621,1583320250,1583320791,1583320829,1583329250,1583321870,2f3ce87533388a3814b5839b58b7ac7f,406a47750b2960d4666f4dc63f704d9f
10120267,6,2100076339474302588,正常天气,121.429085,39.197715,121.438544,39.199911,1583320363,1583320943,1583320949,1583329363,1583321983,787b9bc63d12be121afa9eaf0923e60f,406a47750b2960d4666f4dc63f704d9f
10120267,6,2100076340166231762,正常天气,121.427722,39.197284,121.439714,39.198881,1583321602,1583321610,1583321669,1583323762,1583322450,d6d11ab9b55d3de98bf11fbe7629eb9e,eb9afc4319dc58a2414863512e5c624a
10123801,0,2100076279351018904,正常天气,121.478006,39.071964,121.484204,39.063731,1583291977,1583291977,1583291980,1583294677,1583292997,2ecc4f44b797459c09d6b4b5f95b7a79,fd06d3c70d0f007e3159d88515e25b43
10123801,0,2100076280330782104,正常天气,121.478006,39.071964,121.491554,39.059311,1583292245,1583292245,1583292282,1583294885,1583293025,f6f202fd64c30e6811f9808c69d5faeb,fd06d3c70d0f007e3159d88515e25b43
10123801,0,2100076282487571661,正常天气,121.48395,39.0646,121.488714,39.049621,1583292353,1583292355,1583292401,1583295293,1583293555,1306b3dd7a5b278465a221d70b6fca7f,bb69771d5fde6210a7cba6038ae27691
10123801,0,2100076282522469581,正常天气,121.48395,39.0646,121.488714,39.049621,1583292421,1583292422,1583292460,1583295301,1583293502,1306b3dd7a5b278465a221d70b6fca7f,bb69771d5fde6210a7cba6038ae27691
10123801,0,2100076283678295179,正常天气,121.477101,39.063399,121.485144,39.061681,1583292542,1583292543,1583292641,1583294462,1583293323,a93d3c0b20cdac720f6a4766f4aaaa09,5adf8e08f264ad102c1e779796c417c8
101266154,0,2100076261816698201,正常天气,121.378125,39.122669,121.368564,39.141571,1583262410,1583262486,1583289585,1583292600,1583263986,3ef4f3f9a6fb0ec53620b7d30f54889c,62c4971f3b5872a5d7ca60ff204cadab
101266154,0,2100076270542554616,正常天气,121.378464,39.123372,121.373114,39.130641,1583289417,1583289420,1583289466,1583292057,1583290680,0346846cd07176f1fbce7de1188e59a7,886937d7f08614673b24e6bb23597c91
101266154,0,2100076273366697123,正常天气,121.378509,39.122531,121.377774,39.128781,1583289959,1583289960,1583290006,1583291759,1583290860,0346846cd07176f1fbce7de1188e59a7,6d7df8a6eb2afb1832568b5b5de1ceae
101266154,0,2100076272128099749,正常天气,121.373504,39.135871,121.370394,39.135601,1583290207,1583290213,1583290246,1583292007,1583290813,bcda0f47b1d801d75b8f3f3edc364765,f6f667fc164958c4f22e25e2ed011339
101266154,0,2100076277748172294,正常天气,121.377624,39.136541,121.374754,39.138491,1583291644,1583291657,1583291687,1583293504,1583292737,d33a893caf48adbe2483ceaf0fb79bb5,d311e349e90b5356a87e0e87830b8e45
101266154,0,2100076281683576389,正常天气,121.374269,39.135742,121.357624,39.127331,1583292515,1583292517,1583292589,1583295395,1583293417,ff3a6be679955e06b8f7c5c88093bca4,840f626ac9a52ccd4f2a74036ee5d23e
101266154,0,2100076285236216955,正常天气,121.358775,39.121507,121.358344,39.120631,1583293495,1583293501,1583293548,1583295955,1583295481,6f1109d5fd9e61c06248d4c923e3886a,f0412724a17569740df385da126b1424
101266154,0,2100076288654804873,正常天气,121.358635,39.128186,121.363924,39.120171,1583293753,1583293754,1583294086,1583296453,1583295014,b49ea77f54765027d8727e77097e8a97,7fb5a0553ecb5d8052a03b7bdbf8c25f
101266154,0,2100076288692520910,正常天气,121.351605,39.122043,121.362594,39.115771,1583293832,1583293832,1583293848,1583296712,1583294912,c1dfb3a42f0c0bda5996decffb901452,17cde16f2d5dd7689c064cfe6fa121e1
10126649,0,2100076262568789430,正常天气,121.687477,39.14079,121.696464,39.140511,1583278676,1583278677,1583279830,1583281800,1583279809,e6180c90cc186357a02c2f30db3ae621,01a19e15848aa6533b2c57f32587ae8f
10126649,0,2100076263748339126,正常天气,121.687477,39.14079,121.710834,39.141821,1583278923,1583278925,1583279710,1583282700,1583279669,c18958bcf31ebfdad8c1aa0aeaf57398,01a19e15848aa6533b2c57f32587ae8f
10126649,0,2100076263748404662,正常天气,121.687477,39.14079,121.704934,39.141741,1583278923,1583278925,1583279710,1583283600,1583279669,8a3ad8a3df38d0457c393395bbf767ed,01a19e15848aa6533b2c57f32587ae8f
10126649,2,2100076268234606006,正常天气,121.687477,39.14079,121.681154,39.141071,1583287979,1583287981,1583288651,1583292600,1583289481,787e256309400035821dcc6ddc67b9a6,01a19e15848aa6533b2c57f32587ae8f
10126649,2,2100076268870206902,正常天气,121.687477,39.14079,121.683994,39.140871,1583287979,1583287982,1583288651,1583292600,1583289482,c5c4b77100a5395180dba4d11616ae01,01a19e15848aa6533b2c57f32587ae8f
10126649,2,2100076269661750710,正常天气,121.687477,39.14079,121.687254,39.141191,1583287980,1583287982,1583288651,1583292600,1583289482,706eaa3c94d66704de70d0bea0206b02,01a19e15848aa6533b2c57f32587ae8f
10126649,4,2100076296657700278,正常天气,121.687477,39.14079,121.715134,39.144801,1583297157,1583297158,1583297771,1583301600,1583298658,7b2f846cac1a1c9572b69bfbd34fd3e5,01a19e15848aa6533b2c57f32587ae8f
10126649,4,2100076297790555574,正常天气,121.687477,39.14079,121.704264,39.146331,1583297158,1583297158,1583297771,1583300700,1583298658,a3db388aa28a611a3b427762ab731e58,01a19e15848aa6533b2c57f32587ae8f
10126649,4,2100076297544107446,正常天气,121.687477,39.14079,121.727554,39.144431,1583297400,1583297401,1583298132,1583301600,1583298901,b15690e517a2b89e6ee4a7d886975d58,01a19e15848aa6533b2c57f32587ae8f
10126649,4,2100076299084596662,正常天气,121.687477,39.14079,121.718984,39.147381,1583297400,1583297401,1583298132,1583302500,1583298901,4a9d7521f6181610e7cb77ef8361c4fc,01a19e15848aa6533b2c57f32587ae8f
10126649,6,2100076311986341302,正常天气,121.687477,39.14079,121.665024,39.139431,1583306998,1583306999,1583307791,1583310600,1583308499,cb76b470876ed83ae151eb7a9d59838a,01a19e15848aa6533b2c57f32587ae8f
10126649,6,2100076312921146806,正常天气,121.687477,39.14079,121.636174,39.154181,1583307660,1583307661,1583308210,1583312400,1583309161,422604bd4620c17ba16c60c64551f01e,01a19e15848aa6533b2c57f32587ae8f
10126649,6,2100076310808659382,正常天气,121.687477,39.14079,121.637174,39.142601,1583307772,1583307773,1583308091,1583312400,1583309273,753c1911e8a294c5db901f8555faff0c,01a19e15848aa6533b2c57f32587ae8f
10126649,8,2100076330922837430,正常天气,121.687477,39.14079,121.671744,39.125131,1583316721,1583316723,1583317031,1583320500,1583318223,c855af65b92dd9b8d8486b80536e9f6e,01a19e15848aa6533b2c57f32587ae8f
10126649,8,2100076332522309046,正常天气,121.687477,39.14079,121.670494,39.130011,1583317558,1583317560,1583317931,1583321400,1583317889,4ff119eb6943edf847ea577273786b5d,01a19e15848aa6533b2c57f32587ae8f
10126649,8,2100076329863382454,正常天气,121.687477,39.14079,121.663574,39.128101,1583317558,1583317560,1583317931,1583321400,1583317889,1e774d8c07c353386658144a16dfd8c1,01a19e15848aa6533b2c57f32587ae8f
10138087,0,2100076268151637628,正常天气,121.429085,39.197715,121.419854,39.185101,1583286793,1583287378,1583287409,1583295793,1583288413,8a039160d2b909474975bbd982a6020c,406a47750b2960d4666f4dc63f704d9f
10138087,0,2100076269309429227,正常天气,121.426651,39.198039,121.426384,39.189301,1583287238,1583287241,1583287289,1583289818,1583288201,5e15eaa29575208336584892dd687e34,9f755868fe0fed8f0b561c21cbddf525
10138087,0,2100076268770002929,正常天气,121.42908,39.19827,121.412004,39.185391,1583287456,1583287457,1583287472,1583290276,1583288057,159c6eb64efcba9ca2b74e95b3a24240,d719b4ab8554d57039ff39c7064e6903
10138087,0,2100076273190241916,正常天气,121.429085,39.197715,121.416894,39.189231,1583288772,1583289341,1583289389,1583297772,1583290572,19271b1628fda2248bf1a550fb159a83,406a47750b2960d4666f4dc63f704d9f
10138087,0,2100076273266427487,正常天气,121.429082,39.198282,121.424764,39.197941,1583289632,1583289633,1583289689,1583291432,1583290233,22a0a5330f618800c51069722d197017,a7d11547fd7de4fe681e65ecd5daeca9
10138087,0,2100076273338549552,正常天气,121.42734,39.197164,121.422064,39.193441,1583289878,1583289879,1583289930,1583291798,1583290959,a4db43af3d8872216fb9f2961fb322a0,ad4266162cbbc7ee153eaa45b84f51c1
101393874,2,2100076333376473034,正常天气,121.565906,39.150668,121.550084,39.156741,1583318245,1583318247,1583318291,1583320405,1583318363,84759a3a0246b2f1b305ad6cbd41ce81,500d53de95afa203f55f1fefbe898cd0
101393874,2,2100076335544469017,正常天气,121.54995,39.150131,121.541474,39.151111,1583319047,1583319049,1583319071,1583321147,1583320129,4c8861f2b629da784d4cfa73a4cc40be,efe575b81c922d8cc0e1da84d1639ccc
101393874,2,2100076337286940562,正常天气,121.551276,39.15102,121.586594,39.150521,1583320028,1583320140,1583320270,1583322908,1583321160,52c409f1571f500e28f490a302a12540,547fedddbd6d232945cd2b984a6d31db
101393874,2,2100076339141215618,正常天气,121.560567,39.147109,121.585934,39.144411,1583320691,1583320692,1583320750,1583323391,1583321772,421b3ac5c24ee992edd6087611c60dbb,805dcfe5ff664511e8fd4fdda658a99c
101393874,2,2100076339478824776,正常天气,121.565824,39.15045,121.586094,39.150141,1583320941,1583320961,1583320989,1583323401,1583322221,52c409f1571f500e28f490a302a12540,ef0a4bc0e4e43ca7405736286ab768c0
10148788,2,2100076283574879683,正常天气,121.447116,39.210352,121.445774,39.200531,1583292847,1583292848,1583293016,1583295007,1583293928,962ab51aa4b3a0ee8b17599bbcc25680,215b931844ff0a296cbeca539067babf
10148788,2,2100076284219491779,正常天气,121.447116,39.210352,121.444404,39.197551,1583292892,1583292893,1583293016,1583295292,1583293793,bfc932305aa303e354cad8589b39c780,215b931844ff0a296cbeca539067babf
10148788,2,2100076284497888645,正常天气,121.446917,39.210012,121.447494,39.205801,1583292946,1583292949,1583293076,1583295946,1583294209,201e5bacd665709851b77148e225b332,481393d0db6ec38a9114882bfb944eb5
10164305,0,2100076275898385757,正常天气,121.593424,39.111521,121.577494,39.125491,1583290785,1583290790,1583290806,1583293005,1583291330,e50c9157fab1a75e67cb4482d9e42555,5f3dadc89d495787af7974d6592ce1c4
10164305,0,2100076276118947218,正常天气,121.575697,39.118307,121.581474,39.111751,1583291267,1583291268,1583291346,1583293547,1583292348,1326d7e9ebe45438d1cbcbfdb1836161,ed0b66c3f5e643e7c13e3ea3f73cf78a
10164305,0,2100076277865678201,正常天气,121.573746,39.113283,121.575474,39.112471,1583291476,1583291476,1583291527,1583293636,1583292736,68460b7e9f01eb4237acd807b45a68d3,69146a8e7daf0d1169bf14ac1efad17b
10164305,0,2100076278046557935,正常天气,121.577822,39.112887,121.583794,39.108601,1583291862,1583291868,1583291948,1583294262,1583292768,9683b0aee62f1265a88708e454825f76,28bf295c6986a7986744d09f20f0220c
10164305,0,2100076286744888748,正常天气,121.591258,39.111731,121.584264,39.109161,1583292954,1583293422,1583293450,1583296314,1583294441,9683b0aee62f1265a88708e454825f76,ab7e1c625f67d01f96ef8d78331f6d11
10164305,0,2100076283915535451,正常天气,121.591344,39.112821,121.586434,39.113151,1583293214,1583293215,1583293452,1583295854,1583294835,dbde0b1d9cfc9bbb414a481a5c1a16eb,84ee7b03ee23e8ffdb61cbec0d096ebf
10164305,0,2100076287634146523,正常天气,121.594336,39.11172,121.577324,39.108941,1583293244,1583293487,1583293569,1583296604,1583295044,0c8387aa16c60065940c3ca04faaef19,6f154c2d936795c7fdd4f21629ca364a
10164305,0,2100076285207479556,正常天气,121.593553,39.111999,121.572394,39.109911,1583293439,1583293442,1583293450,1583296739,1583294522,94bc8a06a023d1d8e17f08a9a4634646,bbe3353a93c88adbbe1fe727cdb2605b
10181667,0,2100076264648573977,正常天气,121.418308,39.154112,121.424264,39.147881,1583284174,1583284180,1583286833,1583289000,1583285680,42e32b304a7fe48782994c75ec1b9f22,52c57f1004ca27f7c848b1cfad3c57a1
10181667,0,2100076267142448532,正常天气,121.422754,39.151521,121.440534,39.155871,1583285997,1583285998,1583286053,1583288217,1583286778,fc531cb338c06c782149e5bb2a703383,60a22ae2b10e74a86723a7b2c4f3931e
10181667,0,2100076268430788281,正常天气,121.428434,39.150391,121.447174,39.164471,1583287070,1583287099,1583287193,1583289770,1583287639,4438ae39e4cea10e5fc65976aeb4abb2,642813e6167662f931b3e5da43684a49
10183602,0,2100076275448349891,正常天气,121.765601,39.346011,121.744754,39.307951,1583291069,1583291079,1583291100,1583294489,1583291979,ecc55ddd8e2200aa1dce3efb209cb8c3,1290385481e8c4c4ba083777815a5a6e
10183602,0,2100076277203698865,正常天气,121.764952,39.346117,121.744264,39.324021,1583291105,1583291108,1583291160,1583295425,1583292188,b740c4c6b0217e4ddc7a04cb7d285c4d,774507b8497da3acc4f975331f9a5953
10183602,0,2100076275671139731,正常天气,121.765105,39.345355,121.744444,39.324611,1583291133,1583291136,1583291160,1583294373,1583292216,b740c4c6b0217e4ddc7a04cb7d285c4d,fa4e8ee1c2598626ed7c90acefd584d0
10183941,4,2100076288602048122,正常天气,121.561946,39.1107,121.558524,39.109341,1583293635,1583293636,1583299685,1583301600,1583295136,687fa577cf257651d0638af900fa8ec7,f3a8ffedbb79c908b8698c2d3edbd025
10183941,4,2100076291440936570,正常天气,121.561946,39.1107,121.558524,39.109341,1583295273,1583295274,1583299684,1583301600,1583296774,687fa577cf257651d0638af900fa8ec7,f3a8ffedbb79c908b8698c2d3edbd025
10183941,4,2100076300584879224,正常天气,121.571711,39.110742,121.559134,39.110891,1583299151,1583299154,1583299205,1583300951,1583300054,42bc11b7b706d5ed440f12aad583679a,3e38509eb8e5669149b2b9ddbc7f7d0a
10190566,0,2100076264605680844,正常天气,121.447562,39.0108,121.455544,39.009311,1583282228,1583283671,1583291820,1583294400,1583285171,23ce92454ac98a9ccffc6d36d7a97018,6a9bbab00cc20367eedd8da5f859af40
10190566,0,2100076271968847465,正常天气,121.436484,39.003691,121.442234,39.007351,1583285069,1583289498,1583290260,1583292600,1583290998,ae3b798bc40a27974ff3c6a40d3e90e2,5694dce329fb063e9152ba51f4bcf3d9
10190566,0,2100076271968814697,正常天气,121.436484,39.003691,121.453414,39.009321,1583288593,1583289498,1583289840,1583292600,1583290998,de427bf8a74499f91b6ec30da3d22bf9,5694dce329fb063e9152ba51f4bcf3d9
10190566,0,2100076275162973801,正常天气,121.436484,39.003691,121.447314,39.014041,1583290295,1583290353,1583290800,1583293500,1583291853,8cc4abe22a97c735b4d8e57939a770d2,5694dce329fb063e9152ba51f4bcf3d9
10190566,0,2100076278425585228,正常天气,121.453952,39.009415,121.458644,39.008761,1583291885,1583291891,1583292420,1583294105,1583293331,a0e33eb9751b0068627099ee6a7e1d66,789f1f83a0382d50580d5dc62e9d9258
10190566,0,2100076281181537868,正常天气,121.453952,39.009415,121.454134,39.009901,1583292172,1583292178,1583292420,1583294272,1583293618,de427bf8a74499f91b6ec30da3d22bf9,789f1f83a0382d50580d5dc62e9d9258
101914266,0,2100076266030532351,正常天气,121.617121,39.134001,121.600704,39.134161,1583283330,1583283337,1583283384,1583285430,1583284237,f818304ae27acc9ffed41e52e6ba5bc8,2cd7d80fad2e359d40ffbb397d7067df
101914266,0,2100076264314439138,正常天气,121.614751,39.142274,121.589674,39.128581,1583283595,1583283595,1583283624,1583286355,1583284495,c811634972f4f5b89c9c5f16e7b0fe3f,b40b07a8997fe732670d31384489eccc
101914266,0,2100076265183479377,正常天气,121.61161,39.139669,121.594564,39.133531,1583283722,1583283722,1583283744,1583286302,1583284622,c4acef402bc04e94e291eb9329073f8e,b6d07a69ac688209e102b0c86397e526
101915922,0,2100076261410964973,正常天气,121.688474,39.283322,121.700714,39.261901,1583249337,1583249338,1583284678,1583287200,1583250838,897d7d1ba4b75659c713a0e70c056459,59a8927e451c9715d9ee574c46ff3a11
101915922,0,2100076260849124845,正常天气,121.688474,39.283322,121.707904,39.266631,1583249706,1583249708,1583284859,1583287200,1583251208,ea30cc7031f9cec17a78ce04d5b823cc,59a8927e451c9715d9ee574c46ff3a11
101915922,0,2100076262151521773,正常天气,121.688474,39.283322,121.705454,39.265861,1583259848,1583259849,1583284678,1583287200,1583261349,68177de806d5c2bf09f44aaa66842533,59a8927e451c9715d9ee574c46ff3a11
101915922,2,2100076300745574010,正常天气,121.685545,39.280117,121.676044,39.278831,1583298707,1583298708,1583298719,1583300687,1583299668,c82fddc61f3973584b61d9117f3d4a6d,3b87c8fac9926b7254acd35bc1f1b113
101915922,2,2100076302455178952,正常天气,121.677846,39.280096,121.682294,39.286161,1583299390,1583299977,1583299979,1583308390,1583301370,7ba0e6d91e44bff17a02d3f5d71a4097,ac5cd13db63c15230b57b3d1fffbdbf2
101915922,2,2100076300671059200,正常天气,121.681914,39.28804,121.675424,39.274731,1583299540,1583299542,1583299559,1583302420,1583300802,2621aef27b7e420281dbbf78fb3cb325,a30ad6b5f18c50a3f9f70cee6d8802b3
101915922,4,2100076313412961619,正常天气,121.661608,39.281822,121.711674,39.266641,1583309189,1583309190,1583309219,1583312969,1583310390,41dd11493c8fd15862e06c035dfd9edd,8c0a00f4fc29f9edc08aa16987b27558
101915922,4,2100076314576258818,正常天气,121.675115,39.273467,121.710564,39.256511,1583309227,1583309244,1583309279,1583312947,1583310504,30545d9051cbf51308aa1cf3531cb36b,f6d0b76bb91c52c06f03865dbee5f908
101915922,4,2100076315513456609,正常天气,121.688474,39.283321,121.708954,39.267601,1583309837,1583309838,1583309879,1583312537,1583310135,162f9f33a8dce14b1e8d2b6916a9a075,a5f5d2c9577817719db8bfb06918bc26
101915922,4,2100076315953825402,正常天气,121.685545,39.280117,121.712354,39.264701,1583310014,1583310015,1583310059,1583313074,1583311215,41dd11493c8fd15862e06c035dfd9edd,3b87c8fac9926b7254acd35bc1f1b113
101915922,4,2100076314763101523,正常天气,121.661608,39.281822,121.711764,39.263111,1583310118,1583310119,1583310179,1583313658,1583311079,cccb9ea4e63495e90091271b26e64e5a,8c0a00f4fc29f9edc08aa16987b27558
101915922,6,2100076335358281252,正常天气,121.670841,39.281411,121.676574,39.272951,1583318911,1583319505,1583322838,1583325000,1583321005,2621aef27b7e420281dbbf78fb3cb325,0d79f084bcabdf0a1ea60bc340c24e69
101915922,6,2100076336920823332,正常天气,121.670841,39.281411,121.676574,39.272951,1583319192,1583319775,1583322839,1583325000,1583321275,2621aef27b7e420281dbbf78fb3cb325,0d79f084bcabdf0a1ea60bc340c24e69
101915922,6,2100076340893320626,正常天气,121.675487,39.271423,121.671764,39.274931,1583322837,1583322840,1583323318,1583325717,1583323920,afb16895b6af6da121e8e7a09c6c2265,28a051d0969bc12049893adf8a999da2
101928706,0,2100076283531855368,正常天气,121.605764,39.118271,121.637434,39.106511,1583292767,1583292772,1583292827,1583296487,1583294212,6403c2618e9bae1e61e9aac5ab88cf33,089ee08cf9492efe2794027163d2b204
101928706,0,2100076284438021592,正常天气,121.606333,39.118121,121.629694,39.117661,1583292818,1583292821,1583292826,1583295818,1583293781,ed58d6bbdf906776754b278e60815760,aecde640b75842676385978e3f5ad4f9
101928706,0,2100076285174875850,正常天气,121.611027,39.119074,121.637434,39.106511,1583293362,1583293371,1583293426,1583296662,1583294271,6403c2618e9bae1e61e9aac5ab88cf33,e29ad95a24abf5ac5f268f0bc978ded1
101928706,0,2100076287940429320,正常天气,121.605764,39.118271,121.632584,39.110201,1583293545,1583293552,1583293606,1583296725,1583294572,4678d9d1ced60a666415ea7800139643,089ee08cf9492efe2794027163d2b204
101928706,4,2100076323166815731,正常天气,121.604602,39.116529,121.618394,39.114381,1583314417,1583314418,1583314424,1583316637,1583315498,2dd7c1333118eebbbece72e0bb52316b,7fa1ce3d7a3e21123089084495c84100
101928706,4,2100076325714986680,正常天气,121.611972,39.117917,121.617014,39.113471,1583314612,1583315213,1583315264,1583318272,1583316593,2dd7c1333118eebbbece72e0bb52316b,9c7a3f795dbbdce924eb818f2ebe669e
101928706,4,2100076324543727091,正常天气,121.604602,39.116529,121.616954,39.114071,1583315008,1583315009,1583315028,1583316808,1583316089,2dd7c1333118eebbbece72e0bb52316b,7fa1ce3d7a3e21123089084495c84100
10194017,2,2100076281175868837,正常天气,121.459199,39.155354,121.452204,39.149931,1583292161,1583292161,1583292202,1583294021,1583292821,426f3b060cc463efe6c2c8c8b404e992,9e609b7065dae867699d7a85712d47fd
10194017,2,2100076283528841087,正常天气,121.454997,39.156713,121.460944,39.160281,1583292765,1583292767,1583292802,1583295045,1583293367,3a96bcb6275ac8d4865cd3ff059a9f40,b40754bef68e805130b18798e6124d3b
10194017,2,2100076284209726483,正常天气,121.46559,39.159513,121.463674,39.160081,1583292865,1583292868,1583292921,1583296045,1583295088,9b6eec14f7974faff8341cff8672c749,43502c4e53b95ae0e9b08a2af70f327f
10194307,0,2100076256462046649,正常天气,121.595306,39.217033,121.595794,39.194141,1583243213,1583243214,1583290271,1583293500,1583244714,1b6b6816645a8bae4a85db7d7f56e079,8caba1ed5212648f55a041598586d726
10194307,0,2100076273977885835,正常天气,121.594987,39.216303,121.593324,39.205451,1583290254,1583290255,1583290272,1583293254,1583291095,1bb6c68a754fc42d2c6440a5abf6c420,33ebc25b8039040bdf4067ad252eef92
10194307,0,2100076274099455556,正常天气,121.593599,39.214292,121.594234,39.203941,1583290735,1583290735,1583290751,1583293435,1583291815,c04a1859b403a20d9e3134c2a645e2fb,8ddeadbec2c568a42fea34d4bb78a9c2
10194307,0,2100076275093144833,正常天气,121.595621,39.214057,121.598384,39.196391,1583291005,1583291011,1583291052,1583294065,1583292091,485b159dcc0f3277ed08f9da077dbc30,79e553ba1d934333b04217ef4a8ccb5f
10194307,0,2100076278625437169,正常天气,121.595201,39.214362,121.590774,39.192891,1583291628,1583291630,1583291655,1583295348,1583292350,99b7d49540ca90fdfe320b4030f3d994,eb2b140c01ef215890a2a4b8900c8e3f
101943338,2,2100076269033358569,正常天气,121.675708,39.271347,121.676444,39.281701,1583287477,1583287478,1583287498,1583289277,1583288018,d7ad94d2766066d2efc5e14de2f7de3e,0703ef31521e3d766ac19f838c887d09
101943338,2,2100076268495766761,正常天气,121.675708,39.271346,121.680964,39.278471,1583287933,1583287934,1583287979,1583289734,1583288654,d2abfa6ea6e2d10557dff851a42baadf,72a0187e2e7712c612438ff90307e437
101943338,2,2100076270996489449,正常天气,121.675708,39.271347,121.667624,39.275341,1583288111,1583288112,1583288459,1583289911,1583288592,afb16895b6af6da121e8e7a09c6c2265,0703ef31521e3d766ac19f838c887d09
101943338,2,2100076271271019753,正常天气,121.675708,39.271346,121.671964,39.274981,1583288723,1583288724,1583288879,1583290524,1583289444,afb16895b6af6da121e8e7a09c6c2265,72a0187e2e7712c612438ff90307e437
101943338,2,2100076271678555369,正常天气,121.675708,39.271347,121.674834,39.272151,1583289139,1583289139,1583289179,1583290939,1583289679,458424a801ba1c764458015c45715720,0703ef31521e3d766ac19f838c887d09
10194640,0,2100076275950880138,正常天气,121.429764,39.195261,121.429394,39.208791,1583290866,1583290867,1583290915,1583297526,1583293207,0cfdd4ff7594e32d577ffbc6a5f22768,785ceb1d4480edaf0615cdf275f969d3
10194640,0,2100076280329995701,正常天气,121.428403,39.196135,121.436654,39.209541,1583292243,1583292244,1583292296,1583295303,1583293024,312824bc55aaa4c88dc8ee15c75b7896,dba61f68d48c3255dd915d591782551f
10194640,0,2100076284181382238,正常天气,121.428734,39.196173,121.429234,39.208331,1583292820,1583292820,1583292835,1583295820,1583294260,416002d445a04ec6afb691115707c38a,daac916b42af462696ae1cd2934d728f
10194640,0,2100076283016218037,正常天气,121.428403,39.196135,121.426294,39.201521,1583293193,1583293194,1583293257,1583296013,1583293974,18b505f4e4416a4d62d810724c122412,dba61f68d48c3255dd915d591782551f
10194640,0,2100076285281142586,正常天气,121.428362,39.196111,121.431664,39.210801,1583293556,1583293566,1583293616,1583296916,1583294766,af3d0a4714bf272ac304d6dff176b7db,5dcc754cfa1164b4645d76b91aaac997
10199051,0,2100076274492671584,正常天气,121.46636,39.09633,121.464884,39.122671,1583290746,1583290747,1583290755,1583293926,1583292187,e2f41b8862cab4f3d46940b196ac0f14,1eca8a2c96e1f80474b0a4d7a1f47182
10199051,0,2100076285723182384,正常天气,121.476274,39.116444,121.489184,39.111721,1583293171,1583293193,1583293215,1583295331,1583293913,31ddf03069c26bf24072c7e0bedc50a4,0d0830ccdebd92d0b010879000073782
10199051,0,2100076287858312612,正常天气,121.486735,39.104986,121.484024,39.126201,1583294376,1583294377,1583294415,1583296716,1583295037,26d0ee97d22fa910c5d9817ca6e6d07d,9d1a0a63eec53280c54b2ad9218b1bd1
10199051,0,2100076289438582180,正常天气,121.486735,39.104986,121.484004,39.117721,1583294405,1583294406,1583294415,1583296505,1583295066,6ad7d45429d4ffbde92d8eb6b389e41b,9d1a0a63eec53280c54b2ad9218b1bd1
101992442,0,2100076279749085175,正常天气,121.486194,39.127331,121.490104,39.112531,1583291587,1583291610,1583291613,1583295923,1583292870,e8d2bfb95b70c3a8ba655bab9c30247c,c8c2f35e4a950eb0f4e86571e285ccf6
101992442,0,2100076278654174667,正常天气,121.488494,39.127241,121.490474,39.109771,1583291673,1583291677,1583291734,1583295036,1583292697,0b081776bae790b4ee7c059c23b96b3a,b42b144c457a69ce740cf7e03cb90665
101992442,0,2100076278093546678,正常天气,121.485634,39.128361,121.494844,39.117361,1583291921,1583291935,1583292094,1583295651,1583293075,121f244b3ba6b03f066ee5bc579bc2c2,181b2cce55996eb74f61dad6ece6c558
102010482,0,2100076284990752548,正常天气,121.765084,39.391701,121.759424,39.392301,1583292705,1583292710,1583292944,1583295165,1583294330,1b47d50b986275ae5c76f5ec0e4f5a93,74b24964dbe414a61c33d690ffa054a1
102010482,0,2100076283272037780,正常天气,121.765226,39.391779,121.755134,39.383511,1583292898,1583292898,1583292944,1583295898,1583294158,1f6c6d04dd8104b5fed8ad5bd60268cf,7ebeee769bec16e7861e61082a88d083
102010482,0,2100076285084927380,正常天气,121.765226,39.391779,121.761394,39.393261,1583292922,1583292922,1583292944,1583294962,1583294182,1b47d50b986275ae5c76f5ec0e4f5a93,7ebeee769bec16e7861e61082a88d083
102010482,0,2100076287702926407,正常天气,121.765109,39.392966,121.759264,39.393471,1583293790,1583293792,1583293844,1583295950,1583295052,1b47d50b986275ae5c76f5ec0e4f5a93,f2dc4bc186ff5dea04f38ace4b880cbe
102039482,0,2100076273103995947,正常天气,121.569398,39.149538,121.552514,39.156911,1583290449,1583290450,1583290690,1583293500,1583291950,7548b189ac24ee0f9c715257a658da1d,17f52d8b59158d94b67a923522f69990
102039482,0,2100076277551301696,正常天气,121.566356,39.149935,121.557824,39.152531,1583291244,1583291245,1583291290,1583293644,1583292325,4f5a97cf06cf69028997db51d8726d28,adfe4aafa9da1cc27b7762cc082be000
102039482,0,2100076276647658560,正常天气,121.566356,39.149935,121.554484,39.157251,1583291276,1583291277,1583291291,1583293676,1583292177,28481b6be325f50c04826859349f4e70,adfe4aafa9da1cc27b7762cc082be000
102039482,0,2100076277646525504,正常天气,121.566356,39.149935,121.542804,39.161941,1583291458,1583291459,1583291472,1583294458,1583292479,fc7563946a5f610df4029751a32c9ef4,adfe4aafa9da1cc27b7762cc082be000
102039482,0,2100076277384610880,正常天气,121.566356,39.149935,121.557844,39.152521,1583291481,1583291482,1583291532,1583293821,1583292502,4f5a97cf06cf69028997db51d8726d28,adfe4aafa9da1cc27b7762cc082be000
102039482,0,2100076288412944274,正常天气,121.551276,39.15102,121.548154,39.149201,1583293712,1583293855,1583293874,1583296232,1583295295,616d9fc34b037d75ee46cb33ed0af3b5,547fedddbd6d232945cd2b984a6d31db
102039482,0,2100076287506482402,正常天气,121.549914,39.150209,121.540634,39.157511,1583293960,1583293970,1583294474,1583297260,1583295290,578371802959ecf7f846e21f8727003a,c1602f198a89acf920c147f98b17bad9
102039482,0,2100076292047734674,正常天气,121.551276,39.15102,121.562104,39.152591,1583294998,1583295156,1583295494,1583298178,1583296776,f2d3bfad8628644447b84404d311adbf,547fedddbd6d232945cd2b984a6d31db
102039482,0,2100076292334978962,正常天气,121.551276,39.15102,121.566154,39.150821,1583295141,1583295158,1583295433,1583298441,1583296778,1a9f9591a28c27396c926ae04999d4fb,547fedddbd6d232945cd2b984a6d31db
102039482,0,2100076293226333368,正常天气,121.549813,39.150554,121.573774,39.138331,1583295269,1583295271,1583295553,1583298689,1583296351,f24d590d0598dbc586cc7ec599db9add,5dc96a520f268fdc3c3043d34cf08d7e
102039482,0,2100076292412114104,正常天气,121.549813,39.150554,121.573774,39.138331,1583295309,1583295311,1583295554,1583298969,1583296391,f24d590d0598dbc586cc7ec599db9add,5dc96a520f268fdc3c3043d34cf08d7e
102039482,0,2100076292974216786,正常天气,121.566079,39.150743,121.573834,39.147171,1583295323,1583295325,1583295612,1583298863,1583296945,930b2494b681fce7b957b71f1bdbe5e9,5ba8a02af58984fc2ac551f0549824ac
102039482,0,2100076293112300762,正常天气,121.566245,39.150765,121.574024,39.149351,1583295700,1583295701,1583295733,1583298640,1583296781,a1ef27f7ea554e2b815028974c714f99,701fd22734aa68451f7d08c05c15fc87
102054458,0,2100076279348004729,正常天气,121.609443,39.132829,121.617014,39.127621,1583291971,1583291972,1583291998,1583295871,1583293232,c3fa55777f5eca6c6ba2ab336448b28d,1cae994d798bccce47e838486d1568e4
102054458,0,2100076285736683385,正常天气,121.609443,39.132829,121.608784,39.126371,1583293206,1583293207,1583293258,1583296446,1583294467,aae29064ff72ca3bd6536348bbedacdf,1cae994d798bccce47e838486d1568e4
102054458,0,2100076292021815161,正常天气,121.609443,39.132829,121.604394,39.130831,1583295105,1583295106,1583295358,1583298045,1583296726,cff632cd294ad0077867413e11b32a70,1cae994d798bccce47e838486d1568e4
102054458,0,2100076293583275897,正常天气,121.609443,39.132829,121.617884,39.127311,1583295514,1583295517,1583295538,1583299414,1583297317,c3fa55777f5eca6c6ba2ab336448b28d,1cae994d798bccce47e838486d1568e4
102064138,4,2100076278979561340,正常天气,121.44453,39.211163,121.452424,39.210231,1583291925,1583291926,1583291937,1583293845,1583292826,6cd8c1a4643b307afcef186a477c1327,bd717f21886af6a511b5b5f50f3bf6f4
102064138,4,2100076279404005322,正常天气,121.448597,39.214318,121.449254,39.212261,1583292064,1583292065,1583292116,1583293864,1583292965,50b2310a33cdc45161ccc0290cf912fa,2596d396a3fc447b069c147890a479b4
102064138,4,2100076279645668866,正常天气,121.452364,39.209781,121.439754,39.225531,1583292112,1583292114,1583292538,1583295472,1583293134,7604775a6af51891221a504623faccd7,52f80997420bed651509050d873bbc88
102064138,4,2100076282508903875,正常天气,121.447116,39.210352,121.445364,39.212941,1583292394,1583292395,1583292538,1583294400,1583293895,b3fcd748bd45fc33014d072d4e8bfd92,215b931844ff0a296cbeca539067babf
102064138,4,2100076283444888887,正常天气,121.452423,39.210229,121.440714,39.215771,1583292661,1583292661,1583292716,1583296261,1583294161,882735cbdfd9f810814d17892ae50023,8c55481f44ceba7c46856559969ebe1a
102064138,4,2100076284143601091,正常天气,121.447116,39.210352,121.445364,39.212941,1583292759,1583292760,1583292776,1583294559,1583293660,b3fcd748bd45fc33014d072d4e8bfd92,215b931844ff0a296cbeca539067babf
10208063,0,2100076253638886837,正常天气,121.490119,39.02117,121.483554,39.010381,1583236531,1583236531,1583285888,1583288100,1583238031,11d0fc888de4ad0a9c15f2569551159a,931a53de75e1f07f53912aae00a788da
10208063,0,2100076260979541751,正常天气,121.482749,39.034882,121.487134,39.031951,1583260049,1583260050,1583287088,1583289000,1583286007,0205e35c5fd0bb77bc6accc39283620e,4c55e5fd7c955c9f8f34e6866d8423c2
10208063,0,2100076262758778877,正常天气,121.47835,39.0117,121.483814,39.008691,1583272987,1583273572,1583286788,1583289000,1583275072,f1158c7b02759b800044d02f30eee055,49b26988a3fd7e3e75cd889ca6347bd9
10208063,0,2100076264140146101,正常天气,121.485641,39.012982,121.485644,39.009521,1583280876,1583280880,1583284389,1583290380,1583282380,b4adfbf27d774da6b84506a2af1bcc26,b295e37c26fdeee78cf9d54454afb39e
10208063,0,2100076266099574545,正常天气,121.481542,39.023542,121.486554,39.023411,1583284009,1583284070,1583284089,1583286769,1583285270,89b87fb0f68e1f39512cf0ec42005f57,1110a2e45e89339c5795b658809747a2
10208063,0,2100076268664096631,正常天气,121.481282,39.020563,121.482934,39.026101,1583286788,1583286789,1583287088,1583289368,1583287989,2e7882f37e6ea65acedf9850155a6e29,5693770f8be5a7dddf9a492006f6f60e
10208063,0,2100076270306100406,正常天气,121.480304,39.025638,121.454964,39.028671,1583287988,1583287992,1583288048,1583291108,1583289072,7e919a5785f1dc9ba2c457422ed14400,e53ecef84ea5776cee6400e54c295507
10210023,0,2100076184516364218,正常天气,121.587833,39.207096,121.609974,39.191111,1583201048,1583201051,1583290373,1583293500,1583202551,684420c37b9f440c4d49d874daafbc7b,60ef775533cd72f76b498c21538b591c
10210023,0,2100076275815417786,正常天气,121.587833,39.207096,121.612064,39.192321,1583290596,1583290598,1583290614,1583293956,1583291858,5a560a8d0e9c1ef2facd3bf64fdacf69,60ef775533cd72f76b498c21538b591c
10210023,0,2100076275617040314,正常天气,121.587833,39.207096,121.598494,39.192351,1583290998,1583290999,1583291034,1583294118,1583292619,d49555879372ede79ba98c72b39fcafc,60ef775533cd72f76b498c21538b591c
102117082,0,2100076270008010292,正常天气,121.444668,39.2879,121.463944,39.291631,1583288025,1583288029,1583289839,1583292600,1583289529,8b8ed6ab5adf37012a170b04735ef812,b32901be22a0ef85648412600b4f5ff0
102117082,0,2100076270871578549,正常天气,121.460449,39.28457,121.465534,39.295371,1583289447,1583289447,1583289479,1583291847,1583290287,21c9b45f66133955cf2fd37f7d25e2b5,6f5d91f195c46be67c203f9a995e0186
102117082,0,2100076273857202027,正常天气,121.445201,39.287833,121.486384,39.297181,1583289658,1583289660,1583289719,1583292838,1583290680,cb65a91efbdc3549d15859ff05d56661,aeab0236dfa47f227bce7c5adc23d28d
10215664,0,2100076314800358530,正常天气,121.430197,39.200281,121.424544,39.202351,1583310314,1583310315,1583310334,1583313194,1583311395,6bfd9d53652f1cf63806201825b63407,1f61e4f3555e8d8a6336b4ca3b870e7d
10215664,0,2100076316664792690,正常天气,121.430667,39.201437,121.426304,39.201541,1583310967,1583310970,1583310994,1583313007,1583312050,18b505f4e4416a4d62d810724c122412,236966b9b65b03fa113db5f6b69d9c1f
10215664,0,2100076321530545547,正常天气,121.431527,39.198799,121.425314,39.202391,1583313194,1583313197,1583313214,1583315234,1583314277,6bfd9d53652f1cf63806201825b63407,94d796cb05c2aa8e8f9a625b211ef384
10215664,0,2100076324476290580,正常天气,121.431624,39.195055,121.451814,39.206471,1583314409,1583314712,1583314714,1583317109,1583315492,edb1e1273d6bcb080448d21f59326872,1fcc31c6b2f32c3e3e73b1d4ab31cd0a
10215664,0,2100076322932393836,正常天气,121.431516,39.198776,121.446454,39.207091,1583314623,1583314625,1583314654,1583316723,1583315105,201e5bacd665709851b77148e225b332,0af48c716ed03bd26f16053925b3aab1
10215664,0,2100076324146317265,正常天气,121.43233,39.198,121.443874,39.200521,1583314774,1583314774,1583314834,1583316694,1583315374,962ab51aa4b3a0ee8b17599bbcc25680,a9fce39bde243cdb5159591f2eb841c3
10215664,2,2100076338020485073,正常天气,121.43233,39.198,121.428614,39.200561,1583321001,1583321002,1583321013,1583322801,1583321902,3b2ceb8d48901e495076387af53c9b03,a9fce39bde243cdb5159591f2eb841c3
10215664,2,2100076340763559075,正常天气,121.429934,39.201451,121.428474,39.201271,1583321545,1583321551,1583321555,1583324065,1583322451,3b2ceb8d48901e495076387af53c9b03,8341b41203a652498d05390eebf89483
10215664,2,2100076341260846243,正常天气,121.429934,39.201451,121.426294,39.201521,1583322756,1583322759,1583322813,1583324556,1583323479,18b505f4e4416a4d62d810724c122412,8341b41203a652498d05390eebf89483
10219599,2,2100076276339115643,正常天气,121.587112,39.111955,121.577504,39.108911,1583290500,1583291033,1583291046,1583299500,1583292480,0c8387aa16c60065940c3ca04faaef19,3e7265f535c084bc1cff38458340bf53
10219599,2,2100076277043987757,正常天气,121.586717,39.111503,121.578534,39.109171,1583291465,1583291466,1583291527,1583293505,1583292186,97abde13ebceb47c93bab239848c3f06,3a45ed2af33600af246cbff5b6fd95a8
10219599,2,2100076285048784438,正常天气,121.591672,39.111597,121.582304,39.109591,1583292831,1583292832,1583293031,1583295171,1583294092,974994c27316e8fc2a79e15880d83d69,2f77cde00e3a9e8cf1cfae36194af199
10219599,2,2100076283629012269,正常天气,121.586717,39.111503,121.583184,39.107091,1583292999,1583293000,1583293029,1583294979,1583293900,9683b0aee62f1265a88708e454825f76,3a45ed2af33600af246cbff5b6fd95a8
10219599,2,2100076285645326081,正常天气,121.591759,39.112031,121.569404,39.097591,1583293030,1583293031,1583293214,1583296990,1583294651,aaeb59b21dae0d19df4fe4332454ac72,f789798ff3162a7ad8167498bb279ff4
10219599,2,2100076284784444729,正常天气,121.595182,39.111382,121.571904,39.101931,1583293091,1583293099,1583293213,1583296991,1583294179,58db7c423b11be226767b63c42206835,ad6e8d504216adcca9bbafe6d837fce7
10219599,2,2100076285934929053,正常天气,121.592175,39.111811,121.569514,39.103311,1583293490,1583293490,1583293569,1583296970,1583294570,d193897db7e9cdb4cd0a6e9d86fc32fe,7a1c65eae4c6b22da579ddc3ef1d55ba
10219599,6,2100076332439504496,正常天气,121.559562,39.111854,121.561114,39.118061,1583318045,1583318051,1583318107,1583320145,1583318951,4c3e5a352fe770352076c9d8cb4b9acd,b0029b2202c5f6115d3dcc8d82f1d478
10219599,6,2100076334467188123,正常天气,121.56043,39.111785,121.558614,39.116331,1583318220,1583318220,1583318226,1583320020,1583319120,bd95babb8109e5dd3e7e63d9694a867e,8879b3f183c3b5da01f6e32c326d3efb
10219599,6,2100076334384580300,正常天气,121.564248,39.115002,121.582154,39.114081,1583319190,1583319190,1583319366,1583321830,1583320150,405fa2869e51d1f39c42e59c37c014c7,4de1b7f7a991970ed51ba528b5be136d
10219599,6,2100076336831039357,正常天气,121.575391,39.114404,121.576604,39.113331,1583319383,1583319384,1583319425,1583321723,1583320824,fc65628983de3577f6e10b041dc30280,1a54ebe9a3a47f467923c0b030b9e114
102246634,0,2100076280273307480,正常天气,121.346586,39.44209,121.339594,39.437641,1583292132,1583292132,1583292190,1583294472,1583293032,8b650ec3d67a3949c6fdc65f26a018fe,7fbc7f35e4b4bedd43267761af93e1ba
102246634,0,2100076279985702574,正常天气,121.347517,39.439096,121.336224,39.433401,1583292302,1583292303,1583292310,1583294342,1583293203,367667c57beb5bc789199695486e7509,ab97c80b516942d749070692864fc170
102246634,0,2100076280027056127,正常天气,121.346964,39.436781,121.339604,39.437531,1583292598,1583292604,1583292611,1583294458,1583293324,8b650ec3d67a3949c6fdc65f26a018fe,d3bbabd6b4aab49fe102d5c764e37b11
10232315,0,2100076266065725023,正常天气,121.429082,39.198282,121.408554,39.187811,1583283677,1583283678,1583283689,1583286437,1583284518,87d61a59c387a9c8f22be7e321dde1f3,a7d11547fd7de4fe681e65ecd5daeca9
10232315,0,2100076266969564767,正常天气,121.429082,39.198282,121.418604,39.190361,1583283741,1583283741,1583283749,1583286441,1583284821,c5e20196afb4dc8fb5ad4e5fdd58675e,a7d11547fd7de4fe681e65ecd5daeca9
10232315,0,2100076264962295391,正常天气,121.429082,39.198282,121.420814,39.194101,1583283983,1583283984,1583283990,1583286323,1583284944,20eebba26233842a84e21593c36dc9dc,a7d11547fd7de4fe681e65ecd5daeca9
10232315,2,2100076271845704830,正常天气,121.427371,39.196942,121.395244,39.222681,1583290098,1583290107,1583290170,1583294358,1583291367,91f019bddd1eced49e9635c30cc0b836,0abd6552e7e6ee50b546145eabd322d7
10232315,2,2100076275062342718,正常天气,121.427276,39.198318,121.412464,39.214291,1583290932,1583290933,1583290950,1583293752,1583291593,5e8ff91ed555b3bcd99046eaa42e31d8,9e35055dfb032bd0b80d0ef9e08b4ab4
10232315,2,2100076276083983851,正常天气,121.426651,39.198039,121.418534,39.199221,1583291170,1583291172,1583291190,1583293630,1583292432,3a30be93eb45566a90f4e95ee72a089a,9f755868fe0fed8f0b561c21cbddf525
10232969,0,2100076262669584059,正常天气,121.481607,39.116637,121.480124,39.121571,1583281200,1583281201,1583284035,1583286300,1583282701,9cd76a67f2c43d90044156e92a1ae2a0,f3bc37770a45d2590b6bd0d2dd8a854d
10232969,0,2100076264494532068,正常天气,121.467455,39.088526,121.483424,39.112571,1583281930,1583281930,1583281934,1583284750,1583283010,085f64697f220328d4b33e5a520f4d73,0cfaeeb93e61e7a926a83bdf3a7a87cd
10232969,0,2100076262992250340,正常天气,121.467455,39.088526,121.472694,39.090911,1583282342,1583282342,1583282353,1583284322,1583283302,63dd17a5ac5111db99f38cb2128148a9,0cfaeeb93e61e7a926a83bdf3a7a87cd
10232969,0,2100076264558757563,正常天气,121.481607,39.116637,121.482554,39.121391,1583283019,1583283020,1583284035,1583286300,1583284520,a60134d8b600f07e351ad5a60f4ab266,f3bc37770a45d2590b6bd0d2dd8a854d
10232969,2,2100076275738117432,正常天气,121.465893,39.112866,121.472804,39.117891,1583291281,1583291282,1583291415,1583293801,1583292362,ef9addb564bcf35e2316389d5c11b700,9733b4e44d59d8def7b6b3d7dd7eb8c9
10232969,2,2100076283158201821,正常天气,121.475945,39.116303,121.468384,39.106531,1583292691,1583292692,1583292735,1583294791,1583293472,2ce9891dba0677957d0c7df97fe4a92d,213fc014f650fdfb0403e75c6d750fe5
10232969,2,2100076283806516451,正常天气,121.47944,39.114318,121.470684,39.095881,1583292954,1583292958,1583293096,1583295354,1583293738,eb2dfe64864a5932db287f493fa5d631,863ba2b47f09959cede1d079eed75138
10232969,2,2100076285605643872,正常天气,121.46636,39.09633,121.490184,39.102221,1583293412,1583293413,1583293575,1583296352,1583294853,29f9d90fb2411d01da5e096867f298fe,1eca8a2c96e1f80474b0a4d7a1f47182
10232969,2,2100076285291726489,正常天气,121.466666,39.096321,121.472144,39.096051,1583293580,1583293585,1583293635,1583295500,1583294665,566a9968b43628588e76be5a85a0f9e8,980c8ce89c3309423948d003b967cab6
10232969,2,2100076284981675616,正常天气,121.46636,39.09633,121.485944,39.096121,1583293607,1583293607,1583293635,1583297927,1583295227,c6bc66db3abdbc5834cfe0eadb239611,1eca8a2c96e1f80474b0a4d7a1f47182
10232969,4,2100076321113114374,正常天气,121.485327,39.093852,121.474804,39.098941,1583311139,1583312921,1583312954,1583321939,1583312427,2996962656838a97af4c5f926fe6f1b0,8fa0f28c0febf530755980772e247cc7
10232969,4,2100076319363335942,正常天气,121.485327,39.093852,121.476434,39.093221,1583311770,1583313548,1583313554,1583322570,1583317148,3d05ead49fae84555b1962ae1f8bec80,8fa0f28c0febf530755980772e247cc7
10232969,4,2100076322484651592,正常天气,121.474895,39.09391,121.485554,39.117331,1583314008,1583314012,1583314095,1583317008,1583315212,3e9ef421fcef33ea2ac1459d282b2464,4562e5a841ad2e538bffeb59664566af
10232969,4,2100076321269614454,正常天气,121.479163,39.101446,121.488604,39.114321,1583314018,1583314019,1583314095,1583316898,1583314859,8b0579a96483bd4ba2871460159e11d8,27371dd96bbe7ccd1236b350a156bf94
10232969,4,2100076326047974606,正常天气,121.479398,39.116586,121.468644,39.127351,1583315106,1583315124,1583315415,1583319426,1583316564,4651fdd1771ebe7e92af458b77208ca1,55bfff5addc3ab011f695cd8bdb9bd8c
10232969,4,2100076328507278822,正常天气,121.472263,39.115249,121.468994,39.127211,1583316402,1583316402,1583316434,1583319042,1583317302,4651fdd1771ebe7e92af458b77208ca1,d9a6d0b5a0bbcbb1f251949906ca4a3f
10232969,4,2100076328858453158,正常天气,121.481607,39.116637,121.461794,39.123371,1583316429,1583316430,1583316434,1583319129,1583317330,403adea50ff232955bf7b1eaadee0d77,ea5d8393f451ea876a988eef70d57313
102333794,0,2100076271498659405,正常天气,121.351514,39.430281,121.346154,39.443791,1583289854,1583289857,1583290810,1583293500,1583291357,1c5a34550302584282091a8d5f7836ee,0ccf3e4fa7a9beaab3ed41b1fddab163
102333794,0,2100076275507333050,正常天气,121.34705,39.4339,121.346654,39.444591,1583290432,1583290433,1583290450,1583292592,1583291693,5af86af95c226d880ac6f10beb387783,2a0912bf19f5acaae49b6209deaf058a
102333794,0,2100076277875082566,正常天气,121.3469,39.440705,121.332994,39.433381,1583291506,1583291507,1583291590,1583293606,1583292407,5266c2eb23aa2455abcc4e92494c0522,6a69afc8470b66181037684266a52519
102358466,2,2100076271470740684,正常天气,121.543984,39.0632,121.524004,39.061811,1583289746,1583289747,1583289775,1583291966,1583290467,224c93c77a379c71ca46463935597f46,4313868ab68061d88e30706f2cac70e3
102358466,2,2100076273782982447,正常天气,121.527748,39.058415,121.544724,39.053641,1583290496,1583290497,1583290616,1583293376,1583291937,10f7944b69ad46eca600707006cb9d75,5b5e6d2f9dd600ea91384bacec242a59
102358466,2,2100076274640619311,正常天气,121.527748,39.058415,121.544844,39.054971,1583290602,1583290603,1583290616,1583293782,1583292043,10f7944b69ad46eca600707006cb9d75,5b5e6d2f9dd600ea91384bacec242a59
102358466,2,2100076274733221265,正常天气,121.527345,39.064557,121.544254,39.054171,1583290942,1583290945,1583290976,1583293942,1583292205,10f7944b69ad46eca600707006cb9d75,097602015d524fd525b285b51b3a7608
102358466,2,2100076274801837871,正常天气,121.527748,39.058415,121.542024,39.054131,1583291073,1583291073,1583291096,1583294493,1583292513,10f7944b69ad46eca600707006cb9d75,5b5e6d2f9dd600ea91384bacec242a59
102358466,2,2100076276919797551,正常天气,121.527748,39.058415,121.541864,39.055791,1583291291,1583291292,1583291333,1583294471,1583292732,ebbff6976d2d047819ca2733c42ff8f8,5b5e6d2f9dd600ea91384bacec242a59
10239433,0,2100076275173131719,正常天气,121.456027,38.961193,121.451014,38.984731,1583290372,1583290373,1583290380,1583293072,1583291093,1ef37bfd38477b4c853153cdfdfe7f5f,cc7e86678e765d9a9f7066c6e846138d
10239433,0,2100076275293128466,正常天气,121.446658,38.981657,121.425564,38.982351,1583290647,1583290709,1583290740,1583292600,1583292209,2f0d54e4f2acac86fba88c3de79c4a7a,e9eca22f92c3b1817632b9df6a89e8ad
10239433,0,2100076274772412178,正常天气,121.446658,38.981657,121.426064,38.985341,1583291025,1583291026,1583291040,1583293500,1583292526,e0eae5bd0488446df6b512bef7cefccc,e9eca22f92c3b1817632b9df6a89e8ad
102449370,0,2100076269122061407,正常天气,121.667315,39.228043,121.638924,39.242641,1583288325,1583288332,1583288338,1583291325,1583289592,93757388d1a8ee5d9ddc51aadb9eb14c,cb9b3ed8c5969f172ca12c079fe0f149
102449370,0,2100076271931131164,正常天气,121.642138,39.229833,121.660224,39.250861,1583289187,1583289190,1583289238,1583292007,1583289910,d85359523f72551e00a84203526763ea,ffab8999e2e70d79aabdcadb5377f41a
102449370,0,2100076273575167485,正常天气,121.643347,39.230506,121.641224,39.240921,1583289812,1583289814,1583289840,1583291972,1583290654,a8387c87aff66954f1ba8b2c0f92671d,2d0c6ba036d76f015fc0eb4ec5cfb805
10248665,0,2100076272493659196,正常天气,121.418986,39.126643,121.414804,39.125771,1583290512,1583290514,1583290805,1583292672,1583291474,a2f48157474b73de616d2993de0909c2,9797b7bb6568ea50c159061184a5288d
10248665,0,2100076275560253169,正常天气,121.419765,39.126022,121.405024,39.126631,1583290683,1583290692,1583290745,1583293203,1583291952,db91c0f1c5e86800bd95107b9a11bdef,cbe63ba61d943fc817b67a7bc0766ab5
10248665,0,2100076275387762212,正常天气,121.40517,39.127795,121.405064,39.126861,1583290930,1583290931,1583290985,1583292730,1583291332,db91c0f1c5e86800bd95107b9a11bdef,9aa4b89fedd8fc675cbc3838f559e524
10248665,0,2100076281474090532,正常天气,121.40517,39.127795,121.412464,39.126331,1583292110,1583292110,1583292426,1583294150,1583293550,6d301a8f38f0ff4437e812b6039c0f3c,9aa4b89fedd8fc675cbc3838f559e524
10248665,0,2100076282151732772,正常天气,121.40517,39.127795,121.412464,39.126331,1583292278,1583292278,1583292426,1583294558,1583293538,6d301a8f38f0ff4437e812b6039c0f3c,9aa4b89fedd8fc675cbc3838f559e524
10248665,0,2100076283307459798,正常天气,121.410416,39.126008,121.431814,39.117171,1583292950,1583292952,1583293445,1583296370,1583294572,b78f3b80984f024bdd974198fc29df41,4b9b41c5e1b48fef00020cf653a53ce7
10248665,0,2100076287298602758,正常天气,121.410556,39.126075,121.421004,39.123171,1583293309,1583293309,1583293446,1583295469,1583293969,7cfdf95c73b2f283c4a6b3b449de7a47,82963529aaac551f477bb9ff118f1eb4
10249075,8,2100076320818955762,正常天气,121.575205,39.106846,121.579764,39.101791,1583313255,1583313256,1583313304,1583315535,1583314516,5101a4796c5127131b2112e2bc6fe02b,960a19b2c0b727439ad9d5bd9b1a13c1
10249075,8,2100076325352081402,正常天气,121.575545,39.103083,121.589714,39.105621,1583313938,1583314532,1583314565,1583322938,1583315558,5ad9a2c53b84f608141cfc1a0143aafc,61be8c5f24588a313c738cc8e68f60a5
10249075,8,2100076325439309818,正常天气,121.575545,39.103083,121.579074,39.102021,1583314131,1583314707,1583314744,1583323131,1583315931,4c2b826508d3906780a4514f8c565164,61be8c5f24588a313c738cc8e68f60a5
10249075,8,2100076326939625210,正常天气,121.574996,39.103068,121.588254,39.101681,1583315293,1583315297,1583315345,1583317273,1583316197,dfd149e53e974295e2b2a005de31f795,443927762735683669353e45c3e27574
102499938,0,2100076265123612159,正常天气,121.529341,39.251043,121.516464,39.252081,1583282854,1583282854,1583282873,1583284654,1583283574,7376ff83e35323b1281db93d8d21512b,3a11301eb8307f3b567e56eb0abebb82
102499938,0,2100076263311508991,正常天气,121.529341,39.251043,121.519954,39.252431,1583282885,1583282886,1583282933,1583284685,1583283366,4cbf502dd949edb945afe32a8f23054a,b79617592ef0cfb447addc496d3141cd
102499938,0,2100076265751545343,正常天气,121.529341,39.251043,121.530224,39.258211,1583283364,1583283364,1583283473,1583285164,1583283844,74dfd10defa3dbc440e4d4a5a28cd529,b79617592ef0cfb447addc496d3141cd
102499938,0,2100076266076571135,正常天气,121.529341,39.251043,121.535074,39.262361,1583283775,1583283776,1583283834,1583285575,1583284316,7e98b1781a64cf150b6c9af5d8b93f54,b79617592ef0cfb447addc496d3141cd
102503626,0,2100076273571399660,正常天气,121.592711,39.126915,121.599664,39.130251,1583289505,1583289807,1583289846,1583292745,1583291125,40d096df6b8ecc15bd8cf38b7794308f,1cdc0e0954566688bf1926f33d86a3a7
102503626,0,2100076273895769707,正常天气,121.593554,39.126701,121.604424,39.133931,1583289924,1583289926,1583289966,1583292624,1583291006,39ef6ae0491f7459a602abf1c2eec555,5c22dc281fd8c4702a3f686d425fe0d4
102503626,0,2100076280163108703,正常天气,121.602415,39.129656,121.593264,39.123121,1583291866,1583291870,1583292008,1583293846,1583292410,063009df54ed726d7ae70bb9b982556b,e6a470c54fc3a1a189705d5711450ff0
102503626,0,2100076279583475551,正常天气,121.602415,39.129656,121.591814,39.125471,1583291992,1583291997,1583292008,1583293972,1583292717,d036d1779ad0253480e9cb257b424d17,e6a470c54fc3a1a189705d5711450ff0
102503626,0,2100076280015521783,正常天气,121.590568,39.124236,121.582354,39.128601,1583292576,1583292577,1583292789,1583295216,1583294377,2ad83f3066d224bd3397472c0212b6db,e013bc7e4a573beebd1b0c23c29c4c4b
102503626,0,2100076282620675180,正常天气,121.594622,39.129304,121.565694,39.135171,1583292603,1583292603,1583293091,1583296263,1583293863,24dac3f2da8b8bcd0e2a802df7c7a1d0,2bf105ee74c143b7a88a060fc9051ecd
102503626,0,2100076280725112728,正常天气,121.593204,39.126908,121.566544,39.137971,1583292634,1583292644,1583293089,1583296054,1583294084,1ff6ad2d40c433c05a6267a5595fadc7,3ae0f37a4c8562dc57a8975773b9e06d
102503626,0,2100076284120008695,正常天气,121.590568,39.124236,121.586534,39.127041,1583292720,1583292721,1583292789,1583295300,1583294701,c44b51615980418857e7196d5b4cbd80,e013bc7e4a573beebd1b0c23c29c4c4b
102503626,0,2100076283005601622,正常天气,121.588765,39.125069,121.566354,39.138011,1583293176,1583293177,1583293211,1583296236,1583294077,1ff6ad2d40c433c05a6267a5595fadc7,55078418ccd78d6638c60ce2a3556f57
102503626,0,2100076291249833897,正常天气,121.575765,39.138991,121.594874,39.129481,1583294554,1583294554,1583294888,1583297554,1583295994,765543e6ba1d006441cc866d24eb3a4c,82055226870d3cdab492ea36813c9caa
102503626,0,2100076292874307005,正常天气,121.575993,39.138321,121.586024,39.130281,1583295005,1583295009,1583295068,1583297945,1583296089,94bcc03f5939079ca8e737fe3438bbd4,eaebf692b693053704740510f876dd07
102503626,6,2100076328659354904,正常天气,121.593359,39.127012,121.605304,39.135761,1583315762,1583315768,1583315826,1583319422,1583317388,94819f68010465e7d27e15b8014b33fb,9d8e132dcd38e86d5d180281df2cebfe
102503626,6,2100076327317308600,正常天气,121.594182,39.1269,121.611774,39.136651,1583315768,1583315776,1583315826,1583319248,1583316856,54438157cd028b8ff493a5c79cee74fa,863d19196aa6c48696ecfd29ded32603
102503626,6,2100076328740226949,正常天气,121.592956,39.126991,121.610844,39.137101,1583316025,1583316029,1583316065,1583318485,1583316749,8777b32f993acb8a6924d139886beef4,2b6dca374a70ce46a5e48032f3ff371d
102505130,0,2100076268098914231,正常天气,121.529825,39.249787,121.546924,39.257311,1583286671,1583286672,1583286680,1583290991,1583288472,c71d9d8e03df7b53992b5db477600fe5,c4e6c505ebeaeac5990886d649881093
102505130,0,2100076269019924407,正常天气,121.529825,39.249787,121.535534,39.253291,1583287407,1583287408,1583287460,1583291727,1583289208,1b8aa27bdbf1183c31fee12cd1f34419,c4e6c505ebeaeac5990886d649881093
102505130,0,2100076270613497783,正常天气,121.529825,39.249787,121.552934,39.252681,1583287864,1583287865,1583287880,1583292184,1583290865,3e1c32e07d62f561400449b1b2e99bb4,c4e6c505ebeaeac5990886d649881093
102505130,2,2100076289502152083,正常天气,121.532471,39.250872,121.526234,39.234431,1583294496,1583294501,1583294723,1583297196,1583295701,8b1b8e7940c830fbcb55f81c41375c40,a8f5e40d7e9c0fbca1a1c8be28fc05ea
102505130,2,2100076289568834697,正常天气,121.542628,39.252183,121.529654,39.235981,1583294642,1583294643,1583294722,1583297762,1583295723,8b1b8e7940c830fbcb55f81c41375c40,d0fff79f765a2cd65accd7248cb66aea
102505130,2,2100076291083110367,正常天气,121.532972,39.250768,121.526014,39.234521,1583294833,1583294834,1583294843,1583297893,1583296574,8b1b8e7940c830fbcb55f81c41375c40,f4cc5a5de5b7acd5002a3cdee0b2fb0e
102505130,4,2100076300447057168,正常天气,121.549745,39.247059,121.532454,39.233621,1583298519,1583298520,1583298620,1583302120,1583300020,bdcd8461a592279845a08ef5966c68f3,69d33dbaa32fc93d66a5ee4d967f6429
102505130,4,2100076298997794064,正常天气,121.549745,39.247059,121.532034,39.246851,1583298559,1583298560,1583298620,1583302160,1583300060,e6309ea80d22e59b6a8c6f4ea6391746,69d33dbaa32fc93d66a5ee4d967f6429
102505130,4,2100076299282515216,正常天气,121.549745,39.247059,121.535184,39.244531,1583298559,1583298560,1583298680,1583302160,1583300060,c64c55a0a390d20ffbe44896c501eb2a,69d33dbaa32fc93d66a5ee4d967f6429
102505130,4,2100076300458296592,正常天气,121.549745,39.247059,121.533404,39.246171,1583298560,1583298561,1583298620,1583302161,1583300061,6e8b64f8d68a2a309b494ec8f5262ff1,69d33dbaa32fc93d66a5ee4d967f6429
102505130,4,2100076299282711824,正常天气,121.549745,39.247059,121.534524,39.245781,1583298560,1583298560,1583298681,1583302160,1583300060,c64c55a0a390d20ffbe44896c501eb2a,69d33dbaa32fc93d66a5ee4d967f6429
102505130,4,2100076300460688656,正常天气,121.549745,39.247059,121.534534,39.245431,1583298573,1583298573,1583298681,1583302173,1583300073,c64c55a0a390d20ffbe44896c501eb2a,69d33dbaa32fc93d66a5ee4d967f6429
102505130,4,2100076299295786256,正常天气,121.549745,39.247059,121.541224,39.246221,1583298620,1583298620,1583298681,1583302220,1583300120,28f9fe37e8e1458b1b46f8fd68fce094,69d33dbaa32fc93d66a5ee4d967f6429
102505130,4,2100076297402058000,正常天气,121.549745,39.247059,121.532844,39.244291,1583298620,1583298621,1583298681,1583302221,1583300121,ece2824e8f8cd15c60854fcaf352d66c,69d33dbaa32fc93d66a5ee4d967f6429
102505130,8,2100076322738799718,正常天气,121.53052,39.249586,121.524204,39.247361,1583313569,1583313870,1583313920,1583316569,1583315370,5db3b4c159b6e4ef43170cf97abed610,3b3911386a0edd275e2d1d4d57a94c1d
102505130,8,2100076326117050295,正常天气,121.529825,39.249787,121.535424,39.242611,1583315402,1583315402,1583315420,1583319722,1583317022,c64c55a0a390d20ffbe44896c501eb2a,c4e6c505ebeaeac5990886d649881093
102505130,8,2100076328755692646,正常天气,121.53052,39.249586,121.535184,39.244531,1583315766,1583316066,1583316081,1583318646,1583317386,c64c55a0a390d20ffbe44896c501eb2a,3b3911386a0edd275e2d1d4d57a94c1d
102505130,8,2100076328934638910,正常天气,121.531682,39.250846,121.534234,39.246311,1583316032,1583316033,1583316081,1583317832,1583316693,11a50ac735a956ad075aad8ee3179e76,2b9d8df8ef1e17139cf4ffc7628c4f2a
102505146,0,2100076261565564367,正常天气,121.554141,39.250324,121.541684,39.253331,1583266769,1583266770,1583285600,1583288100,1583279694,9c51efd9e4a644a1db2ccd9568fb8734,cac143fd69c50a927ee42015dc34ca67
102505146,0,2100076262761399759,正常天气,121.554141,39.250324,121.535694,39.254931,1583273830,1583273831,1583285780,1583288100,1583280901,e59cc3e9c83ece79feca930920c70d27,cac143fd69c50a927ee42015dc34ca67
102505146,0,2100076263156516817,正常天气,121.53247,39.250814,121.539264,39.249121,1583280240,1583280246,1583284401,1583286300,1583281994,b3be804034e63e722b8c08c38d29750f,5e02b4211877eeecb3aebe36f6e9844b
102505146,0,2100076264793409489,正常天气,121.53247,39.250814,121.537354,39.249641,1583281256,1583281260,1583284282,1583286300,1583283602,b3be804034e63e722b8c08c38d29750f,5e02b4211877eeecb3aebe36f6e9844b
102505146,0,2100076267994317848,正常天气,121.549796,39.247203,121.536874,39.254481,1583285116,1583285150,1583285303,1583286976,1583285870,e59cc3e9c83ece79feca930920c70d27,1cc2c4a4a6742da048f429a8975d5c4d
102505146,2,2100076280784946829,正常天气,121.530839,39.249926,121.529914,39.258091,1583291782,1583291785,1583291841,1583295262,1583293345,74dfd10defa3dbc440e4d4a5a28cd529,b6be3df0667306f794687d99a87b50a6
102505146,2,2100076278733178626,正常天气,121.530174,39.248821,121.531564,39.256591,1583291851,1583291854,1583291902,1583295451,1583292934,5d096a283d60eeb9b0908220b2a29497,2d8115aa6e238872e86e8ff7196fe924
102505146,2,2100076281528911251,正常天气,121.532471,39.250872,121.527694,39.251071,1583292248,1583292250,1583292262,1583294048,1583292910,76360c44ac6a27c92df63b6a95233ca0,a8f5e40d7e9c0fbca1a1c8be28fc05ea
102505146,2,2100076281553421901,正常天气,121.530447,39.249152,121.530994,39.252191,1583292307,1583292314,1583292324,1583294407,1583293574,ddc8d9e403ce38cdea2277957bac0c24,0ac602bd74adc35f3ab04c9883ac3dd6
102505146,2,2100076282199901558,正常天气,121.529898,39.249162,121.529554,39.258471,1583292335,1583292339,1583292443,1583294735,1583293239,74dfd10defa3dbc440e4d4a5a28cd529,9316aae49c34710688dd955cebc53f08
102505146,2,2100076287484593976,正常天气,121.532158,39.251232,121.529944,39.258031,1583293914,1583293929,1583293942,1583295834,1583294649,74dfd10defa3dbc440e4d4a5a28cd529,c705bf8126c3c6be29b7aa38f6942fb1
102505146,2,2100076288756057387,正常天气,121.531417,39.251488,121.530084,39.258391,1583293979,1583293980,1583294005,1583296139,1583294880,74dfd10defa3dbc440e4d4a5a28cd529,e95d7c4f4848cf5d539a7632138e3b4e
102505146,2,2100076289252984126,正常天气,121.531682,39.250846,121.534994,39.254481,1583293985,1583293986,1583294245,1583296145,1583294886,3656e5331f32ac1a498dc06d6cd80bcb,2b9d8df8ef1e17139cf4ffc7628c4f2a
102505146,2,2100076288766183264,正常天气,121.532543,39.2513,121.529974,39.257661,1583294001,1583294003,1583294126,1583295981,1583295143,40821309365f3770cd9cdfcd56a7dd5e,e40a4ace77227de53c4fb3e9f43ddb1f
102505146,2,2100076292194501931,正常天气,121.531417,39.251488,121.513744,39.259861,1583294673,1583294673,1583294902,1583297313,1583295753,76f89c0743837ba66ebf42f2b88de8bd,e95d7c4f4848cf5d539a7632138e3b4e
102505146,2,2100076290847246136,正常天气,121.532158,39.251232,121.512904,39.261901,1583295093,1583295095,1583295142,1583297493,1583295815,16f4e01f5eacec7d88b0c1b65b8e3cb1,c705bf8126c3c6be29b7aa38f6942fb1
102505842,0,2100076320062047826,正常天气,121.610772,39.179199,121.602024,39.190601,1583312334,1583312335,1583312340,1583314854,1583313055,3d701b5354217283388396597bce2c3a,ac4e72346be1a1a7248e0b6207f99419
102505842,0,2100076320173885404,正常天气,121.603995,39.193676,121.606664,39.178061,1583313103,1583313104,1583313120,1583315683,1583314184,302fbce5fc0a9789f828742cdda24491,ce81badaf33d97545eb3e902e1b00740
102505842,0,2100076320790087603,正常天气,121.603968,39.187946,121.604204,39.177681,1583313143,1583313145,1583313180,1583315543,1583314765,ad012be1f6ecabffa8bcce2856c0c7c1,4c2d287f7156d9e5860c5b5dfe150ef8
102505842,0,2100076320254166078,正常天气,121.603932,39.186761,121.600644,39.183481,1583313559,1583313560,1583313599,1583315719,1583314820,d6fe1b0db123eefaf0a72b8b1b292b33,a0e3ccf5f69c26449b0e119c3d1478c2
102505842,0,2100076324752819798,正常天气,121.608369,39.181012,121.608374,39.182611,1583314617,1583314617,1583314740,1583316417,1583315697,fbdfa602a3f8ac1dcfa64a701bc7e634,8ebd589f62d84bee56a310021bb41d13
102505842,0,2100076323278718550,正常天气,121.608369,39.181012,121.608374,39.182611,1583314761,1583314762,1583314799,1583316561,1583315842,fbdfa602a3f8ac1dcfa64a701bc7e634,8ebd589f62d84bee56a310021bb41d13
